[{"id":"-b-waFIsc6BJdXWOJMRKEQ","name":"Marinellas Italian Restaurant","neighborhood":"Bickford Park","address":"640 College Street","city":"Toronto","state":"ON","postal_code":"M5V 2E8","latitude":43.6551,"longitude":-79.4155,"stars":4.5,"review_count":105,"is_open":1,"iterator":1,"stars_food":4.6,"stars_service":4.5,"stars_ambience":4.3,"stars_value":4.2,"noise":"Moderate","recommend":92},{"id":"-BbnAc9YEO6pjvJGEtFbVQ","name":"Sansotei","neighborhood":"Downtown Core","address":"650 Yonge Street","city":"Toronto","state":"ON","postal_code":"M4Y 2A6","latitude":43.6668,"longitude":-79.3855,"stars":4,"review_count":205,"is_open":1,"iterator":2,"stars_food":4.3,"stars_service":4.2,"stars_ambience":3.9,"stars_value":4.1,"noise":"Quiet","recommend":87},{"id":"-ICGmF2qUVKdvOehVNgPbg","name":"Lamesa Filipino Kitchen","neighborhood":"Niagara","address":"669 Queen Street W","city":"Toronto","state":"ON","postal_code":"M6J","latitude":43.6471,"longitude":-79.4047,"stars":4,"review_count":248,"is_open":1,"iterator":3,"stars_food":4.3,"stars_service":4.2,"stars_ambience":3.9,"stars_value":4.1,"noise":"Quiet","recommend":87},{"id":"-ltD-dHqdZ5-wjAMKYa6Ng","name":"La Bella Managua","neighborhood":"Christie Pits","address":"872 Bloor Street W","city":"Toronto","state":"ON","postal_code":"M6G 1M5","latitude":43.6622,"longitude":-79.425,"stars":4.5,"review_count":159,"is_open":1,"iterator":4,"stars_food":4.6,"stars_service":4.5,"stars_ambience":4.3,"stars_value":4.2,"noise":"Moderate","recommend":92},{"id":"-Q5b2LGivWP_ZBwSovGCRQ","name":"Thoroughbred Food & Drink","neighborhood":"Entertainment District","address":"304 Richmond Street W","city":"Toronto","state":"ON","postal_code":"M5V 3M6","latitude":43.6489,"longitude":-79.3916,"stars":4.5,"review_count":102,"is_open":1,"iterator":5,"stars_food":4.6,"stars_service":4.5,"stars_ambience":4.3,"stars_value":4.2,"noise":"Moderate","recommend":92},{"id":"-TjzQsimpriXVYaH3HdtQA","name":"Fanzone Wings & Ribs","neighborhood":"Scarborough","address":"1168 Kennedy Road","city":"Toronto","state":"ON","postal_code":"M1P","latitude":43.7531,"longitude":-79.2762,"stars":4,"review_count":128,"is_open":1,"iterator":6,"stars_food":4.3,"stars_service":4.2,"stars_ambience":3.9,"stars_value":4.1,"noise":"Quiet","recommend":87},{"id":"-Tpo5r3kF_z4iilx8JXhvA","name":"Basil Box","neighborhood":"Ryerson","address":"351 Yonge Street","city":"Toronto","state":"ON","postal_code":"M5B 1S1","latitude":43.6578,"longitude":-79.3815,"stars":4,"review_count":127,"is_open":1,"iterator":7,"stars_food":4.3,"stars_service":4.2,"stars_ambience":3.9,"stars_value":4.1,"noise":"Quiet","recommend":87},{"id":"0-ZA4TTKlHYGIQJj06G0-w","name":"Loaded Pierogi","neighborhood":"St. Lawrence","address":"9 1/2 Church Street","city":"Toronto","state":"ON","postal_code":"M5E 1M2","latitude":43.6479,"longitude":-79.3734,"stars":4,"review_count":152,"is_open":1,"iterator":8,"stars_food":4.3,"stars_service":4.2,"stars_ambience":3.9,"stars_value":4.1,"noise":"Quiet","recommend":87},{"id":"0a2O150ytxrDjDzXNfRWkA","name":"Miku Toronto","neighborhood":"Harbourfront","address":"10 Bay Street, Unit 105","city":"Toronto","state":"ON","postal_code":"M5J 2R8","latitude":43.6412,"longitude":-79.3774,"stars":4,"review_count":455,"is_open":1,"iterator":9,"stars_food":4.3,"stars_service":4.2,"stars_ambience":3.9,"stars_value":4.1,"noise":"Quiet","recommend":87},{"id":"0cpLF0LFQHHRFNlL0iy_Aw","name":"Union Social Eatery","neighborhood":"Yonge and St. Clair","address":"21 Saint Clair Avenue W","city":"Toronto","state":"ON","postal_code":"M4V 1K6","latitude":43.6878,"longitude":-79.3951,"stars":4,"review_count":119,"is_open":1,"iterator":10,"stars_food":4.3,"stars_service":4.2,"stars_ambience":3.9,"stars_value":4.1,"noise":"Quiet","recommend":87},{"id":"1DtyA7pnc66hTkv64lKlzw","name":"Takht-e Tavoos","neighborhood":"Brockton Village","address":"1120 College Street","city":"Toronto","state":"ON","postal_code":"M6H 1B5","latitude":43.6525,"longitude":-79.433,"stars":4.5,"review_count":102,"is_open":1,"iterator":11,"stars_food":4.6,"stars_service":4.5,"stars_ambience":4.3,"stars_value":4.2,"noise":"Moderate","recommend":92},{"id":"1nQMj-F3Oz3IeP9h10CNIA","name":"The Blake House","neighborhood":"Downtown Core","address":"449 Jarvis Street","city":"Toronto","state":"ON","postal_code":"M4Y 2G6","latitude":43.6645,"longitude":-79.3773,"stars":4,"review_count":110,"is_open":1,"iterator":12,"stars_food":4.3,"stars_service":4.2,"stars_ambience":3.9,"stars_value":4.1,"noise":"Quiet","recommend":87},{"id":"269jIQkeE98UJQUeCgQNuQ","name":"Big Crow","neighborhood":"The Annex","address":"176 Dupont Street","city":"Toronto","state":"ON","postal_code":"M5R 2E6","latitude":43.6757,"longitude":-79.4036,"stars":4,"review_count":132,"is_open":1,"iterator":13,"stars_food":4.3,"stars_service":4.2,"stars_ambience":3.9,"stars_value":4.1,"noise":"Quiet","recommend":87},{"id":"27_N5P9HZ86IviONPT_twg","name":"Woodlot Restaurant","neighborhood":"Little Italy","address":"293 Palmerston Avenue","city":"Toronto","state":"ON","postal_code":"M6J 2J3","latitude":43.6556,"longitude":-79.4099,"stars":4,"review_count":238,"is_open":1,"iterator":14,"stars_food":4.3,"stars_service":4.2,"stars_ambience":3.9,"stars_value":4.1,"noise":"Quiet","recommend":87},{"id":"2xw-Ksu9b2jDYlZaApXcBA","name":"Indian Roti House","neighborhood":"Harbourfront","address":"256 Queens Quay W","city":"Toronto","state":"ON","postal_code":"M5J 1B5","latitude":43.6394,"longitude":-79.3855,"stars":4,"review_count":146,"is_open":1,"iterator":15,"stars_food":4.3,"stars_service":4.2,"stars_ambience":3.9,"stars_value":4.1,"noise":"Quiet","recommend":87},{"id":"3glVZZh_vyZH1VvPU0307A","name":"Enoteca Sociale","neighborhood":"Little Portugal","address":"1288 Dundas St W","city":"Toronto","state":"ON","postal_code":"M6J 1X7","latitude":43.6497,"longitude":-79.4257,"stars":4,"review_count":260,"is_open":1,"iterator":16,"stars_food":4.3,"stars_service":4.2,"stars_ambience":3.9,"stars_value":4.1,"noise":"Quiet","recommend":87},{"id":"3ohJ9WQLb5Cbb_j1zdJ-xg","name":"Fabarnak Community Cafe and Catering","neighborhood":"Church-Wellesley Village","address":"519 Church Street","city":"Toronto","state":"ON","postal_code":"M4Y 2C9","latitude":43.6665,"longitude":-79.3809,"stars":4,"review_count":122,"is_open":1,"iterator":17,"stars_food":4.3,"stars_service":4.2,"stars_ambience":3.9,"stars_value":4.1,"noise":"Quiet","recommend":87},{"id":"3qTSOuJ-ZyU1L7o62KHSIg","name":"Gio Rana's Really Really Nice Restaurant","neighborhood":"Leslieville","address":"1220 Queen Street E","city":"Toronto","state":"ON","postal_code":"M4M 1L7","latitude":43.6633,"longitude":-79.3304,"stars":4,"review_count":173,"is_open":1,"iterator":18,"stars_food":4.3,"stars_service":4.2,"stars_ambience":3.9,"stars_value":4.1,"noise":"Quiet","recommend":87},{"id":"3uIXuw878fNjxZ2Li1diFg","name":"The Hogtown Vegan","neighborhood":"Dovercourt","address":"1056 Bloor St. W","city":"Toronto","state":"ON","postal_code":"M6H 1M3","latitude":43.6606,"longitude":-79.4326,"stars":4,"review_count":349,"is_open":1,"iterator":19,"stars_food":4.3,"stars_service":4.2,"stars_ambience":3.9,"stars_value":4.1,"noise":"Quiet","recommend":87},{"id":"3XVAfJQdX327pqNZg5KV5g","name":"Bazara Asian Cuisine","neighborhood":"Ossington Strip","address":"188 Ossington Avenue","city":"Toronto","state":"ON","postal_code":"M6J 2Z7","latitude":43.6485,"longitude":-79.4206,"stars":4,"review_count":111,"is_open":1,"iterator":20,"stars_food":4.3,"stars_service":4.2,"stars_ambience":3.9,"stars_value":4.1,"noise":"Quiet","recommend":87},{"id":"3_HrWm4qrzTN0gAC_CrfTQ","name":"Crêpe It Up","neighborhood":"Church-Wellesley Village","address":"507 Church Street","city":"Toronto","state":"ON","postal_code":"M4Y 2C9","latitude":43.666,"longitude":-79.3809,"stars":4,"review_count":131,"is_open":1,"iterator":21,"stars_food":4.3,"stars_service":4.2,"stars_ambience":3.9,"stars_value":4.1,"noise":"Quiet","recommend":87},{"id":"41o1FUbCYKJv2djtnlkzlg","name":"Bar Raval","neighborhood":"Little Italy","address":"505 College Street","city":"Toronto","state":"ON","postal_code":"M6G 1A4","latitude":43.6559,"longitude":-79.4101,"stars":4,"review_count":189,"is_open":1,"iterator":22,"stars_food":4.3,"stars_service":4.2,"stars_ambience":3.9,"stars_value":4.1,"noise":"Quiet","recommend":87},{"id":"4kDLEb1OgE7IrO54lCkn3A","name":"Cocina Economica","neighborhood":"Corktown","address":"141 Berkeley Street","city":"Toronto","state":"ON","postal_code":"M5A 2X1","latitude":43.6549,"longitude":-79.3655,"stars":4,"review_count":117,"is_open":1,"iterator":23,"stars_food":4.3,"stars_service":4.2,"stars_ambience":3.9,"stars_value":4.1,"noise":"Quiet","recommend":87},{"id":"4twpbw7n4DmsLxAm6-sMkg","name":"Seor Ak San","neighborhood":"Chinatown","address":"357 Spadina Avenue","city":"Toronto","state":"ON","postal_code":"M5T 2G3","latitude":43.6556,"longitude":-79.3986,"stars":4,"review_count":242,"is_open":1,"iterator":24,"stars_food":4.3,"stars_service":4.2,"stars_ambience":3.9,"stars_value":4.1,"noise":"Quiet","recommend":87},{"id":"4Ua5_CI0rKq3ar5hUTUprw","name":"KINTON RAMEN","neighborhood":"Downtown Core","address":"396 Church St","city":"Toronto","state":"ON","postal_code":"M5B 2A2","latitude":43.6605,"longitude":-79.3788,"stars":4,"review_count":122,"is_open":1,"iterator":25,"stars_food":4.3,"stars_service":4.2,"stars_ambience":3.9,"stars_value":4.1,"noise":"Quiet","recommend":87},{"id":"4_EgrMY-EI-i-xyWixI2qg","name":"Mystic Muffin","neighborhood":"Corktown","address":"113 Jarvis Street","city":"Toronto","state":"ON","postal_code":"M5C 2H4","latitude":43.6525,"longitude":-79.3726,"stars":4.5,"review_count":227,"is_open":1,"iterator":26,"stars_food":4.6,"stars_service":4.5,"stars_ambience":4.3,"stars_value":4.2,"noise":"Moderate","recommend":92},{"id":"57_msr8gjNakjGO-1f6B_g","name":"Angus Pho House","neighborhood":"Willowdale","address":"5443 Yonge Street","city":"Toronto","state":"ON","postal_code":"M2N 5S1","latitude":43.777,"longitude":-79.4146,"stars":4,"review_count":188,"is_open":1,"iterator":27,"stars_food":4.3,"stars_service":4.2,"stars_ambience":3.9,"stars_value":4.1,"noise":"Quiet","recommend":87},{"id":"59c3Cp-p5i18xFCKUuCkFQ","name":"La Vecchia Ristorante","neighborhood":"Yonge and Eglinton","address":"2405A Yonge Street","city":"Toronto","state":"ON","postal_code":"M4P 2E7","latitude":43.7101,"longitude":-79.3988,"stars":4,"review_count":224,"is_open":1,"iterator":28,"stars_food":4.3,"stars_service":4.2,"stars_ambience":3.9,"stars_value":4.1,"noise":"Quiet","recommend":87},{"id":"5WJOM9DefIvLOIrntDIv-A","name":"TrueTrue","neighborhood":"Corktown","address":"169 King Street E","city":"Toronto","state":"ON","postal_code":"M5R 1J4","latitude":43.6503,"longitude":-79.3713,"stars":4,"review_count":106,"is_open":1,"iterator":29,"stars_food":4.3,"stars_service":4.2,"stars_ambience":3.9,"stars_value":4.1,"noise":"Quiet","recommend":87},{"id":"6BC87j5FxoIwa-atC77WYQ","name":"Tabülè Middle Eastern Cuisine","neighborhood":"Riverdale","address":"810 Queen Street  E","city":"Toronto","state":"ON","postal_code":"M4M 1H7","latitude":43.6597,"longitude":-79.3465,"stars":4,"review_count":132,"is_open":1,"iterator":30,"stars_food":4.3,"stars_service":4.2,"stars_ambience":3.9,"stars_value":4.1,"noise":"Quiet","recommend":87},{"id":"6eRSdODyj9GS0w6zlhrWkg","name":"Adega Restaurante","neighborhood":"Downtown Core","address":"33 Elm St","city":"Toronto","state":"ON","postal_code":"M5G 1H1","latitude":43.6573,"longitude":-79.3832,"stars":4,"review_count":120,"is_open":1,"iterator":31,"stars_food":4.3,"stars_service":4.2,"stars_ambience":3.9,"stars_value":4.1,"noise":"Quiet","recommend":87},{"id":"7cMnc_zSPenfSQa9_199CA","name":"Bloomer's","neighborhood":"Christie Pits","address":"873 Bloor Street W","city":"Toronto","state":"ON","postal_code":"M6G 1M4","latitude":43.6621,"longitude":-79.425,"stars":4,"review_count":104,"is_open":1,"iterator":32,"stars_food":4.3,"stars_service":4.2,"stars_ambience":3.9,"stars_value":4.1,"noise":"Quiet","recommend":87},{"id":"7gnYWanhD6O7qOF-NfPNhA","name":"Frankie's","neighborhood":"West Queen West","address":"994 Queen Street W","city":"Toronto","state":"ON","postal_code":"M6J 1H1","latitude":43.6444,"longitude":-79.4184,"stars":4,"review_count":124,"is_open":1,"iterator":33,"stars_food":4.3,"stars_service":4.2,"stars_ambience":3.9,"stars_value":4.1,"noise":"Quiet","recommend":87},{"id":"7ODXq--HE7QpzvWwgk5rMA","name":"Barberian's Steak House","neighborhood":"Downtown Core","address":"7 Elm Street","city":"Toronto","state":"ON","postal_code":"M5G 1H1","latitude":43.6576,"longitude":-79.3822,"stars":4,"review_count":213,"is_open":1,"iterator":34,"stars_food":4.3,"stars_service":4.2,"stars_ambience":3.9,"stars_value":4.1,"noise":"Quiet","recommend":87},{"id":"7oEKIG7d1ttPRejppZ3WIA","name":"Lady Marmalade","neighborhood":"Leslieville","address":"898 Queen Street E","city":"Toronto","state":"ON","postal_code":"M4M 1J3","latitude":43.6605,"longitude":-79.3431,"stars":4,"review_count":418,"is_open":1,"iterator":35,"stars_food":4.3,"stars_service":4.2,"stars_ambience":3.9,"stars_value":4.1,"noise":"Quiet","recommend":87},{"id":"8FqfLM0Kv3Grr9l8bOAlCA","name":"Athens Pastries","neighborhood":"Greektown","address":"509 Danforth Avenue","city":"Toronto","state":"ON","postal_code":"M4K 1P5","latitude":43.6779,"longitude":-79.3488,"stars":4.5,"review_count":103,"is_open":1,"iterator":36,"stars_food":4.6,"stars_service":4.5,"stars_ambience":4.3,"stars_value":4.2,"noise":"Moderate","recommend":92},{"id":"8I2XBrjf4rOEWx7pnKpVeg","name":"Kub Khao Thai Eatery","neighborhood":"Scarborough","address":"3561 Sheppard E","city":"Toronto","state":"ON","postal_code":"M1T 3K7","latitude":43.7802,"longitude":-79.2998,"stars":4,"review_count":170,"is_open":1,"iterator":37,"stars_food":4.3,"stars_service":4.2,"stars_ambience":3.9,"stars_value":4.1,"noise":"Quiet","recommend":87},{"id":"8VQu2-4UOXNm0eqVpjkE_Q","name":"Porchetta & Co","neighborhood":"Trinity Bellwoods","address":"825 Dundas Street W","city":"Toronto","state":"ON","postal_code":"M6J","latitude":43.6516,"longitude":-79.409,"stars":4,"review_count":202,"is_open":1,"iterator":38,"stars_food":4.3,"stars_service":4.2,"stars_ambience":3.9,"stars_value":4.1,"noise":"Quiet","recommend":87},{"id":"9GKi6rHN_0FRdcVahyIOXQ","name":"Oyster Boy","neighborhood":"West Queen West","address":"872 Queen Street W","city":"Toronto","state":"ON","postal_code":"M6J 1G3","latitude":43.6452,"longitude":-79.4143,"stars":4,"review_count":153,"is_open":1,"iterator":39,"stars_food":4.3,"stars_service":4.2,"stars_ambience":3.9,"stars_value":4.1,"noise":"Quiet","recommend":87},{"id":"9Oc8UhYNarSisYM9SEBsKQ","name":"Chop Steakhouse & Bar","neighborhood":"Etobicoke","address":"801 Dixon Road","city":"Toronto","state":"ON","postal_code":"M9W 1J5","latitude":43.6867,"longitude":-79.5876,"stars":4,"review_count":129,"is_open":1,"iterator":40,"stars_food":4.3,"stars_service":4.2,"stars_ambience":3.9,"stars_value":4.1,"noise":"Quiet","recommend":87},{"id":"9pWzjhdrPgsZEmF7-QOaIQ","name":"Tacos 101","neighborhood":"Downtown Core","address":"101 Dundas Street  E","city":"Toronto","state":"ON","postal_code":"M5B 1E1","latitude":43.6564,"longitude":-79.3768,"stars":4,"review_count":143,"is_open":1,"iterator":41,"stars_food":4.3,"stars_service":4.2,"stars_ambience":3.9,"stars_value":4.1,"noise":"Quiet","recommend":87},{"id":"9tfw-OEfpF0qC2hSzRks6g","name":"Hair of the Dog","neighborhood":"Church-Wellesley Village","address":"425 Church Street","city":"Toronto","state":"ON","postal_code":"M4Y 2C3","latitude":43.6629,"longitude":-79.3796,"stars":4,"review_count":289,"is_open":1,"iterator":42,"stars_food":4.3,"stars_service":4.2,"stars_ambience":3.9,"stars_value":4.1,"noise":"Quiet","recommend":87},{"id":"9_CGhHMz8698M9-PkVf0CQ","name":"Little Coxwell Vietnamese & Thai Cuisine","neighborhood":"East York","address":"986 Coxwell Avenue","city":"Toronto","state":"ON","postal_code":"M4C 3G5","latitude":43.6962,"longitude":-79.3291,"stars":4,"review_count":111,"is_open":1,"iterator":43,"stars_food":4.3,"stars_service":4.2,"stars_ambience":3.9,"stars_value":4.1,"noise":"Quiet","recommend":87},{"id":"A6bnXx1see4yZSaVVCVDyw","name":"Rolltation","neighborhood":"Downtown Core","address":"207 Dundas Street W","city":"Toronto","state":"ON","postal_code":"M5G 1C8","latitude":43.6548,"longitude":-79.3875,"stars":4,"review_count":155,"is_open":1,"iterator":44,"stars_food":4.3,"stars_service":4.2,"stars_ambience":3.9,"stars_value":4.1,"noise":"Quiet","recommend":87},{"id":"a9aW5e731lplWGHUZ02-zQ","name":"Chino Locos Original","neighborhood":"Leslieville","address":"4 Greenwood Avenue","city":"Toronto","state":"ON","postal_code":"M4L 2P4","latitude":43.6645,"longitude":-79.3255,"stars":4,"review_count":162,"is_open":1,"iterator":45,"stars_food":4.3,"stars_service":4.2,"stars_ambience":3.9,"stars_value":4.1,"noise":"Quiet","recommend":87},{"id":"aAYl1-tsvP9Kzs7YESi8Rg","name":"Electric Mud BBQ","neighborhood":"Parkdale","address":"5 Brock Avenue","city":"Toronto","state":"ON","postal_code":"M6K 1L4","latitude":43.6421,"longitude":-79.4324,"stars":4,"review_count":227,"is_open":1,"iterator":46,"stars_food":4.3,"stars_service":4.2,"stars_ambience":3.9,"stars_value":4.1,"noise":"Quiet","recommend":87},{"id":"abO4gvGKB0aVjsrXHlgeFg","name":"Nobuya","neighborhood":"Etobicoke","address":"285 Royal York Road","city":"Toronto","state":"ON","postal_code":"M8V 2W1","latitude":43.6145,"longitude":-79.4975,"stars":4,"review_count":125,"is_open":1,"iterator":47,"stars_food":4.3,"stars_service":4.2,"stars_ambience":3.9,"stars_value":4.1,"noise":"Quiet","recommend":87},{"id":"ABRgXNwdOX_JyqChNr8IYw","name":"Swatow Restaurant","neighborhood":"Chinatown","address":"309 Spadina Avenue","city":"Toronto","state":"ON","postal_code":"M5T 2E6","latitude":43.6538,"longitude":-79.3981,"stars":4,"review_count":236,"is_open":1,"iterator":48,"stars_food":4.3,"stars_service":4.2,"stars_ambience":3.9,"stars_value":4.1,"noise":"Quiet","recommend":87},{"id":"acvmtF41s5Qa1ZNadUV0Dw","name":"Average Joe's Café","neighborhood":"Kensington Market","address":"161 Baldwin Street, Unit 1","city":"Toronto","state":"ON","postal_code":"M5T 1L9","latitude":43.6548,"longitude":-79.3998,"stars":4,"review_count":107,"is_open":1,"iterator":49,"stars_food":4.3,"stars_service":4.2,"stars_ambience":3.9,"stars_value":4.1,"noise":"Quiet","recommend":87},{"id":"AED5R0yXVzJvWAGEqWBG4A","name":"NEO COFFEE BAR","neighborhood":"Corktown","address":"161 Frederick St, Unit 100","city":"Toronto","state":"ON","postal_code":"M5A 4P3","latitude":43.6507,"longitude":-79.3691,"stars":4,"review_count":110,"is_open":1,"iterator":50,"stars_food":4.3,"stars_service":4.2,"stars_ambience":3.9,"stars_value":4.1,"noise":"Quiet","recommend":87},{"id":"aIBvcOjkAURJJ-UH0G-s0g","name":"Bitondo's Pizzeria","neighborhood":"Little Italy","address":"11 Clinton Street","city":"Toronto","state":"ON","postal_code":"M6J 2N7","latitude":43.6539,"longitude":-79.4133,"stars":4,"review_count":117,"is_open":1,"iterator":51,"stars_food":4.3,"stars_service":4.2,"stars_ambience":3.9,"stars_value":4.1,"noise":"Quiet","recommend":87},{"id":"ajHLLUe-A9dTd7WyU12XZQ","name":"Madras Masala","neighborhood":"Christie Pits","address":"796 Bloor Street W","city":"Toronto","state":"ON","postal_code":"M6G 1L7","latitude":43.6632,"longitude":-79.4219,"stars":4,"review_count":138,"is_open":1,"iterator":52,"stars_food":4.3,"stars_service":4.2,"stars_ambience":3.9,"stars_value":4.1,"noise":"Quiet","recommend":87},{"id":"aLcFhMe6DDJ430zelCpd2A","name":"Khao San Road","neighborhood":"Entertainment District","address":"11 Charlotte St","city":"Toronto","state":"ON","postal_code":"M5V 2H5","latitude":43.6464,"longitude":-79.3935,"stars":4,"review_count":1270,"is_open":1,"iterator":53,"stars_food":4.3,"stars_service":4.2,"stars_ambience":3.9,"stars_value":4.1,"noise":"Quiet","recommend":87},{"id":"aLTpnF4xG3KA5trMilgChQ","name":"Ni Ji Sushi","neighborhood":"Scarborough","address":"1095 Ellesmere Road","city":"Toronto","state":"ON","postal_code":"M1P 2W9","latitude":43.7676,"longitude":-79.2715,"stars":4,"review_count":190,"is_open":1,"iterator":54,"stars_food":4.3,"stars_service":4.2,"stars_ambience":3.9,"stars_value":4.1,"noise":"Quiet","recommend":87},{"id":"AQJPI5rnkb7pBnBMWtSjvw","name":"The Shore Club - Toronto","neighborhood":"Entertainment District","address":"155 Wellington Street W","city":"Toronto","state":"ON","postal_code":"M5V 3H1","latitude":43.6458,"longitude":-79.3866,"stars":4,"review_count":132,"is_open":1,"iterator":55,"stars_food":4.3,"stars_service":4.2,"stars_ambience":3.9,"stars_value":4.1,"noise":"Quiet","recommend":87},{"id":"aRqxT28Tdz2aDiZ7Vkyejw","name":"White Brick Kitchen","neighborhood":"Koreatown","address":"641 Bloor Street W","city":"Toronto","state":"ON","postal_code":"M6G 1L1","latitude":43.6642,"longitude":-79.415,"stars":4,"review_count":187,"is_open":1,"iterator":56,"stars_food":4.3,"stars_service":4.2,"stars_ambience":3.9,"stars_value":4.1,"noise":"Quiet","recommend":87},{"id":"B01pO_pI_8AOfEsukGNg-Q","name":"100 Percent Korean","neighborhood":"Milliken","address":"4779 Steeles Avenue E","city":"Toronto","state":"ON","postal_code":"M1V","latitude":43.8255,"longitude":-79.2985,"stars":4.5,"review_count":122,"is_open":1,"iterator":57,"stars_food":4.6,"stars_service":4.5,"stars_ambience":4.3,"stars_value":4.2,"noise":"Moderate","recommend":92},{"id":"B4-2wA8Pj8MQK1Ylymypqg","name":"Sunny Morning","neighborhood":"Etobicoke","address":"1602 The Queensway","city":"Toronto","state":"ON","postal_code":"M8Z 1V1","latitude":43.6185,"longitude":-79.5441,"stars":4.5,"review_count":157,"is_open":1,"iterator":58,"stars_food":4.6,"stars_service":4.5,"stars_ambience":4.3,"stars_value":4.2,"noise":"Moderate","recommend":92},{"id":"B5JCODx4728Ce2Qca1NFHw","name":"Hanmoto","neighborhood":"Little Portugal","address":"2 Lakeview Avenue","city":"Toronto","state":"ON","postal_code":"M6J 1X4","latitude":43.6497,"longitude":-79.4227,"stars":4,"review_count":133,"is_open":1,"iterator":59,"stars_food":4.3,"stars_service":4.2,"stars_ambience":3.9,"stars_value":4.1,"noise":"Quiet","recommend":87},{"id":"b7wUWVV01xaa7E0FUNMDiw","name":"DaiLo","neighborhood":"Little Italy","address":"503 College Street","city":"Toronto","state":"ON","postal_code":"M6G 1A5","latitude":43.6558,"longitude":-79.4099,"stars":4,"review_count":178,"is_open":1,"iterator":60,"stars_food":4.3,"stars_service":4.2,"stars_ambience":3.9,"stars_value":4.1,"noise":"Quiet","recommend":87},{"id":"bEVWHtBRYVwqaaNF4mWNYg","name":"Coquine Restaurant","neighborhood":"Mount Pleasant and Davisville","address":"2075 Yonge Street","city":"Toronto","state":"ON","postal_code":"M4S 2A4","latitude":43.7026,"longitude":-79.3973,"stars":4,"review_count":122,"is_open":1,"iterator":61,"stars_food":4.3,"stars_service":4.2,"stars_ambience":3.9,"stars_value":4.1,"noise":"Quiet","recommend":87},{"id":"Bf2fuqWbHd3L-X69FSMvmg","name":"El Trompo Taco Bar","neighborhood":"Kensington Market","address":"277 Augusta Ave","city":"Toronto","state":"ON","postal_code":"M5T 2M1","latitude":43.6559,"longitude":-79.4023,"stars":4,"review_count":299,"is_open":1,"iterator":62,"stars_food":4.3,"stars_service":4.2,"stars_ambience":3.9,"stars_value":4.1,"noise":"Quiet","recommend":87},{"id":"bQm046mj02fKlNMvoS2SBg","name":"Anatolia Restaurant","neighborhood":"Etobicoke","address":"5112 Dundas Street W","city":"Toronto","state":"ON","postal_code":"M9A 1C2","latitude":43.6448,"longitude":-79.5329,"stars":4,"review_count":141,"is_open":1,"iterator":63,"stars_food":4.3,"stars_service":4.2,"stars_ambience":3.9,"stars_value":4.1,"noise":"Quiet","recommend":87},{"id":"bRntmjztJ4dFDA_LYiEECw","name":"Snakes & Lattes Annex","neighborhood":"Koreatown","address":"600 Bloor Street W","city":"Toronto","state":"ON","postal_code":"M6G 1K4","latitude":43.6648,"longitude":-79.4132,"stars":4,"review_count":301,"is_open":1,"iterator":64,"stars_food":4.3,"stars_service":4.2,"stars_ambience":3.9,"stars_value":4.1,"noise":"Quiet","recommend":87},{"id":"BxCzy1WOVxOrr_G7V4BIvg","name":"Lola's Kitchen","neighborhood":"Church-Wellesley Village","address":"634 Church Street","city":"Toronto","state":"ON","postal_code":"M4Y 2G3","latitude":43.6698,"longitude":-79.3828,"stars":4,"review_count":335,"is_open":1,"iterator":65,"stars_food":4.3,"stars_service":4.2,"stars_ambience":3.9,"stars_value":4.1,"noise":"Quiet","recommend":87},{"id":"BYDs_o6U4CLxJec8k1Q90Q","name":"Poke Guys","neighborhood":"Downtown Core","address":"112 Elizabeth Street, Unit 1","city":"Toronto","state":"ON","postal_code":"M5G 1P5","latitude":43.6548,"longitude":-79.3852,"stars":4,"review_count":268,"is_open":1,"iterator":66,"stars_food":4.3,"stars_service":4.2,"stars_ambience":3.9,"stars_value":4.1,"noise":"Quiet","recommend":87},{"id":"bzMO8LJmJtgo3KuyWGKUxA","name":"Homemade Ramen","neighborhood":"Chinatown","address":"263 Spadina Avenue","city":"Toronto","state":"ON","postal_code":"M5T 2E3","latitude":43.6524,"longitude":-79.3974,"stars":4,"review_count":148,"is_open":1,"iterator":67,"stars_food":4.3,"stars_service":4.2,"stars_ambience":3.9,"stars_value":4.1,"noise":"Quiet","recommend":87},{"id":"c35qzLN6ItDpVIoj2uQW4Q","name":"Ravi Soups","neighborhood":"Entertainment District","address":"322 Adelaide Street W","city":"Toronto","state":"ON","postal_code":"M5V 1R1","latitude":43.6475,"longitude":-79.392,"stars":4.5,"review_count":309,"is_open":1,"iterator":68,"stars_food":4.6,"stars_service":4.5,"stars_ambience":4.3,"stars_value":4.2,"noise":"Moderate","recommend":92},{"id":"C6vH0qzmcerMkiJy3VO9qA","name":"Estiatorio VOLOS","neighborhood":"Financial District","address":"133 Richmond St W","city":"Toronto","state":"ON","postal_code":"M5H 2L3","latitude":43.6501,"longitude":-79.3848,"stars":4,"review_count":246,"is_open":1,"iterator":69,"stars_food":4.3,"stars_service":4.2,"stars_ambience":3.9,"stars_value":4.1,"noise":"Quiet","recommend":87},{"id":"c78Pat78fVUBFPXYeVvbaQ","name":"Odd Seoul","neighborhood":"Ossington Strip","address":"90 Ossington Avenue","city":"Toronto","state":"ON","postal_code":"M6J 2Y7","latitude":43.6462,"longitude":-79.4197,"stars":4,"review_count":223,"is_open":1,"iterator":70,"stars_food":4.3,"stars_service":4.2,"stars_ambience":3.9,"stars_value":4.1,"noise":"Quiet","recommend":87},{"id":"cInYKKK7p9y1FokuKClNtw","name":"Bunner's","neighborhood":"The Junction","address":"3054 Dundas Street W","city":"Toronto","state":"ON","postal_code":"M6P 1Z7","latitude":43.6657,"longitude":-79.4714,"stars":4,"review_count":108,"is_open":1,"iterator":71,"stars_food":4.3,"stars_service":4.2,"stars_ambience":3.9,"stars_value":4.1,"noise":"Quiet","recommend":87},{"id":"cj_9eTPR0JBqk9qt2VmzFw","name":"Hodo Kwaja","neighborhood":"Koreatown","address":"656 Bloor Street W","city":"Toronto","state":"ON","postal_code":"M6G 1K9","latitude":43.6643,"longitude":-79.4156,"stars":4.5,"review_count":153,"is_open":1,"iterator":72,"stars_food":4.6,"stars_service":4.5,"stars_ambience":4.3,"stars_value":4.2,"noise":"Moderate","recommend":92},{"id":"cQK9M2JAwETQnnBoYyua5A","name":"The Senator","neighborhood":"Downtown Core","address":"249 Victoria Street","city":"Toronto","state":"ON","postal_code":"M5B 1T8","latitude":43.6557,"longitude":-79.379,"stars":4,"review_count":377,"is_open":1,"iterator":73,"stars_food":4.3,"stars_service":4.2,"stars_ambience":3.9,"stars_value":4.1,"noise":"Quiet","recommend":87},{"id":"crstB-H5rOfbXhV8pX0e6g","name":"Ramen Isshin","neighborhood":"Kensington Market","address":"421 College Street","city":"Toronto","state":"ON","postal_code":"M5T 1T1","latitude":43.6565,"longitude":-79.407,"stars":4.5,"review_count":356,"is_open":1,"iterator":74,"stars_food":4.6,"stars_service":4.5,"stars_ambience":4.3,"stars_value":4.2,"noise":"Moderate","recommend":92},{"id":"cr__ihwxDQ7hyq2ZfX172Q","name":"Bach Yen","neighborhood":"Riverdale","address":"738 Gerrard Street E","city":"Toronto","state":"ON","postal_code":"M4M 1Y3","latitude":43.6667,"longitude":-79.3475,"stars":4,"review_count":167,"is_open":1,"iterator":75,"stars_food":4.3,"stars_service":4.2,"stars_ambience":3.9,"stars_value":4.1,"noise":"Quiet","recommend":87},{"id":"D-8yidw7FLKKQpciKJSd2g","name":"The Burgernator","neighborhood":"Kensington Market","address":"269 Augusta Avenue","city":"Toronto","state":"ON","postal_code":"M5T 1M5","latitude":43.6556,"longitude":-79.4024,"stars":4,"review_count":281,"is_open":1,"iterator":76,"stars_food":4.3,"stars_service":4.2,"stars_ambience":3.9,"stars_value":4.1,"noise":"Quiet","recommend":87},{"id":"Da6eZFThE9xanUAGNpZxAg","name":"Nuit Social","neighborhood":"Beaconsfield Village","address":"1168 Queen Street W","city":"Toronto","state":"ON","postal_code":"M6J 1J5","latitude":43.6429,"longitude":-79.4254,"stars":4.5,"review_count":150,"is_open":1,"iterator":77,"stars_food":4.6,"stars_service":4.5,"stars_ambience":4.3,"stars_value":4.2,"noise":"Moderate","recommend":92},{"id":"dAmVTQ6ukuLh4UxTmBoRkg","name":"Maha's","neighborhood":"Leslieville","address":"226 Greenwood Avenue","city":"Toronto","state":"ON","postal_code":"M4L 2R2","latitude":43.6717,"longitude":-79.3286,"stars":4,"review_count":286,"is_open":1,"iterator":78,"stars_food":4.3,"stars_service":4.2,"stars_ambience":3.9,"stars_value":4.1,"noise":"Quiet","recommend":87},{"id":"dd3GZs6zW2t7BM0cbxAzvg","name":"La Palette","neighborhood":"Alexandra Park","address":"492 Queen Street W","city":"Toronto","state":"ON","postal_code":"M5V 2B3","latitude":43.6479,"longitude":-79.401,"stars":4,"review_count":188,"is_open":1,"iterator":79,"stars_food":4.3,"stars_service":4.2,"stars_ambience":3.9,"stars_value":4.1,"noise":"Quiet","recommend":87},{"id":"DE89UdHFMCN6DtYWZuer5A","name":"Hokkaido Ramen Santouka","neighborhood":"Ryerson","address":"91 Dundas Street E","city":"Toronto","state":"ON","postal_code":"M5B 2C8","latitude":43.6563,"longitude":-79.3775,"stars":4,"review_count":651,"is_open":1,"iterator":80,"stars_food":4.3,"stars_service":4.2,"stars_ambience":3.9,"stars_value":4.1,"noise":"Quiet","recommend":87},{"id":"dy0O7DaSUd49NZWSEtvz_g","name":"Foxley Bistro and Bar","neighborhood":"Ossington Strip","address":"207 Ossington Avenue","city":"Toronto","state":"ON","postal_code":"M6J 2Z8","latitude":43.6486,"longitude":-79.4203,"stars":4,"review_count":122,"is_open":1,"iterator":81,"stars_food":4.3,"stars_service":4.2,"stars_ambience":3.9,"stars_value":4.1,"noise":"Quiet","recommend":87},{"id":"EEIz44ewHhOKmfTloAK13g","name":"Alo Restaurant","neighborhood":"Queen Street West","address":"163 Spadina Avenue, 3rd Floor","city":"Toronto","state":"ON","postal_code":"M5V 2A5","latitude":43.6485,"longitude":-79.3959,"stars":4.5,"review_count":162,"is_open":1,"iterator":82,"stars_food":4.6,"stars_service":4.5,"stars_ambience":4.3,"stars_value":4.2,"noise":"Moderate","recommend":92},{"id":"ejKXczjEkm1gzyRdblQm8w","name":"Fresh on Spadina","neighborhood":"Entertainment District","address":"147 Spadina Avenue","city":"Toronto","state":"ON","postal_code":"M5V 2L7","latitude":43.6481,"longitude":-79.3956,"stars":4,"review_count":302,"is_open":1,"iterator":83,"stars_food":4.3,"stars_service":4.2,"stars_ambience":3.9,"stars_value":4.1,"noise":"Quiet","recommend":87},{"id":"f5O7v_X_jCg2itqacRfxhg","name":"Sansotei Ramen","neighborhood":"Downtown Core","address":"179 Dundas Street W","city":"Toronto","state":"ON","postal_code":"M5G 1Z8","latitude":43.655,"longitude":-79.3865,"stars":4,"review_count":701,"is_open":1,"iterator":84,"stars_food":4.3,"stars_service":4.2,"stars_ambience":3.9,"stars_value":4.1,"noise":"Quiet","recommend":87},{"id":"FBd6q_qzEFixvhV3KdzvJw","name":"Riddle Room","neighborhood":"Church-Wellesley Village","address":"579 Yonge Street, 2nd Floor","city":"Toronto","state":"ON","postal_code":"M4Y 1Z2","latitude":43.6658,"longitude":-79.3847,"stars":4.5,"review_count":133,"is_open":1,"iterator":85,"stars_food":4.6,"stars_service":4.5,"stars_ambience":4.3,"stars_value":4.2,"noise":"Moderate","recommend":92},{"id":"FfJD4vO-iYUL2Kr0WWzNYg","name":"The Caledonian","neighborhood":"Dufferin Grove","address":"856 College Street","city":"Toronto","state":"ON","postal_code":"M6H 1A2","latitude":43.6544,"longitude":-79.4236,"stars":4,"review_count":114,"is_open":1,"iterator":86,"stars_food":4.3,"stars_service":4.2,"stars_ambience":3.9,"stars_value":4.1,"noise":"Quiet","recommend":87},{"id":"Fl2yDmC0B0TTVsNixxVXfA","name":"The Emerson","neighborhood":"Bloordale Village","address":"1279 Bloor Street W","city":"Toronto","state":"ON","postal_code":"M6H 1N7","latitude":43.6584,"longitude":-79.442,"stars":4,"review_count":104,"is_open":1,"iterator":87,"stars_food":4.3,"stars_service":4.2,"stars_ambience":3.9,"stars_value":4.1,"noise":"Quiet","recommend":87},{"id":"FML0YqZ7dLBBC3Suap4_4Q","name":"416 Snack Bar","neighborhood":"Alexandra Park","address":"181 Bathurst Street","city":"Toronto","state":"ON","postal_code":"M5T 2R7","latitude":43.6475,"longitude":-79.4039,"stars":4,"review_count":264,"is_open":1,"iterator":88,"stars_food":4.3,"stars_service":4.2,"stars_ambience":3.9,"stars_value":4.1,"noise":"Quiet","recommend":87},{"id":"fNc1WuGwiT7RhqXUIe4S8A","name":"Sabai Sabai Kitchen and Bar","neighborhood":"Church-Wellesley Village","address":"81 Bloor Street E","city":"Toronto","state":"ON","postal_code":"M4W 1A9","latitude":43.6705,"longitude":-79.3847,"stars":4,"review_count":157,"is_open":1,"iterator":89,"stars_food":4.3,"stars_service":4.2,"stars_ambience":3.9,"stars_value":4.1,"noise":"Quiet","recommend":87},{"id":"fN_I3jP7RD2llubTvhXtKQ","name":"The Good Fork","neighborhood":"Bloor-West Village","address":"2432 Bloor Street W","city":"Toronto","state":"ON","postal_code":"M6S 1P9","latitude":43.6496,"longitude":-79.4841,"stars":4,"review_count":237,"is_open":1,"iterator":90,"stars_food":4.3,"stars_service":4.2,"stars_ambience":3.9,"stars_value":4.1,"noise":"Quiet","recommend":87},{"id":"fQwB9Z98YEhkJit7c3z51A","name":"The Carbon Bar","neighborhood":"Corktown","address":"99 Queen Street E","city":"Toronto","state":"ON","postal_code":"M5C 1S2","latitude":43.6532,"longitude":-79.3748,"stars":4,"review_count":268,"is_open":1,"iterator":91,"stars_food":4.3,"stars_service":4.2,"stars_ambience":3.9,"stars_value":4.1,"noise":"Quiet","recommend":87},{"id":"ftvZ6BVmbZndKcVPEdakIQ","name":"Arepa Café","neighborhood":"Alexandra Park","address":"490 Queen Street W","city":"Toronto","state":"ON","postal_code":"M5V 2B3","latitude":43.648,"longitude":-79.4009,"stars":4,"review_count":215,"is_open":1,"iterator":92,"stars_food":4.3,"stars_service":4.2,"stars_ambience":3.9,"stars_value":4.1,"noise":"Quiet","recommend":87},{"id":"Fx5haZv9PP3E7Ljp-h7B1Q","name":"Eggspectation","neighborhood":"Downtown Core","address":"483 Bay Street","city":"Toronto","state":"ON","postal_code":"M5H 2C9","latitude":43.6533,"longitude":-79.3812,"stars":4,"review_count":395,"is_open":1,"iterator":93,"stars_food":4.3,"stars_service":4.2,"stars_ambience":3.9,"stars_value":4.1,"noise":"Quiet","recommend":87},{"id":"F_oPMHJrH42R67xp5eKtQA","name":"Yummy Korean Food Restaurant","neighborhood":"Koreatown","address":"620 Bloor Street W","city":"Toronto","state":"ON","postal_code":"M6G 1K7","latitude":43.6646,"longitude":-79.4141,"stars":4,"review_count":162,"is_open":1,"iterator":94,"stars_food":4.3,"stars_service":4.2,"stars_ambience":3.9,"stars_value":4.1,"noise":"Quiet","recommend":87},{"id":"G4pt2q9Tr5SkwCw3Wb43VA","name":"Snow Time","neighborhood":"Milliken","address":"3290 Midland Avenue, Unit 10","city":"Toronto","state":"ON","postal_code":"M1V 4W8","latitude":43.8063,"longitude":-79.2893,"stars":4,"review_count":121,"is_open":1,"iterator":95,"stars_food":4.3,"stars_service":4.2,"stars_ambience":3.9,"stars_value":4.1,"noise":"Quiet","recommend":87},{"id":"G8qvbhfbCyMAeZzYrbmZxA","name":"Carmen","neighborhood":"West Queen West","address":"922 Queen Street W","city":"Toronto","state":"ON","postal_code":"M5T 2L9","latitude":43.6449,"longitude":-79.4158,"stars":4,"review_count":130,"is_open":1,"iterator":96,"stars_food":4.3,"stars_service":4.2,"stars_ambience":3.9,"stars_value":4.1,"noise":"Quiet","recommend":87},{"id":"gbjIwB_r6y4YhaZMwEK6mw","name":"Brick Street Bakery","neighborhood":"Distillery District","address":"27 Trinity Street","city":"Toronto","state":"ON","postal_code":"M5A 3C4","latitude":43.6506,"longitude":-79.3595,"stars":4,"review_count":106,"is_open":1,"iterator":97,"stars_food":4.3,"stars_service":4.2,"stars_ambience":3.9,"stars_value":4.1,"noise":"Quiet","recommend":87},{"id":"Gc8xWVpbUlBYHAoOT9MTyQ","name":"La Cubana","neighborhood":"Ossington Strip","address":"92 Ossington Avenue","city":"Toronto","state":"ON","postal_code":"M6J 2Z4","latitude":43.6462,"longitude":-79.4197,"stars":4,"review_count":135,"is_open":1,"iterator":98,"stars_food":4.3,"stars_service":4.2,"stars_ambience":3.9,"stars_value":4.1,"noise":"Quiet","recommend":87},{"id":"GEvolb_U74NXgfgdxrVtyQ","name":"Nichiban Sushi4U","neighborhood":"Milliken","address":"3517 Kennedy Road, Unit 3","city":"Toronto","state":"ON","postal_code":"M1V 4S4","latitude":43.823,"longitude":-79.3064,"stars":4,"review_count":102,"is_open":1,"iterator":99,"stars_food":4.3,"stars_service":4.2,"stars_ambience":3.9,"stars_value":4.1,"noise":"Quiet","recommend":87},{"id":"ghaj1MZzPW1qXYCZWfoTTw","name":"Live Organic Food Bar","neighborhood":"The Annex","address":"264 Dupont Street","city":"Toronto","state":"ON","postal_code":"M5R 1V7","latitude":43.6747,"longitude":-79.4083,"stars":4,"review_count":176,"is_open":1,"iterator":100,"stars_food":4.3,"stars_service":4.2,"stars_ambience":3.9,"stars_value":4.1,"noise":"Quiet","recommend":87},{"id":"gOvEzwpu3KbW5aJReQzYRg","name":"North Poke","neighborhood":"Kensington Market","address":"179 Baldwin Street","city":"Toronto","state":"ON","postal_code":"M5T 1L9","latitude":43.6548,"longitude":-79.4006,"stars":4,"review_count":147,"is_open":1,"iterator":101,"stars_food":4.3,"stars_service":4.2,"stars_ambience":3.9,"stars_value":4.1,"noise":"Quiet","recommend":87},{"id":"GQSmxqRi_s9U9qd5gHLKAw","name":"Duke's Refresher + Bar","neighborhood":"Downtown Core","address":"382 Yonge Street, Unit 8","city":"Toronto","state":"ON","postal_code":"M5B 1S8","latitude":43.659,"longitude":-79.3831,"stars":4,"review_count":138,"is_open":1,"iterator":102,"stars_food":4.3,"stars_service":4.2,"stars_ambience":3.9,"stars_value":4.1,"noise":"Quiet","recommend":87},{"id":"gy5pr5bFAjOL5rERSdMCLg","name":"The Keg Steakhouse + Bar - York Street","neighborhood":"Financial District","address":"165 York Street","city":"Toronto","state":"ON","postal_code":"M5H 3R8","latitude":43.65,"longitude":-79.384,"stars":4,"review_count":193,"is_open":1,"iterator":103,"stars_food":4.3,"stars_service":4.2,"stars_ambience":3.9,"stars_value":4.1,"noise":"Quiet","recommend":87},{"id":"hcHaWzM5wfdAbCWs4zmmqg","name":"Nodo","neighborhood":"The Junction","address":"2885 Dundas Street W","city":"Toronto","state":"ON","postal_code":"M6P 1Y9","latitude":43.6653,"longitude":-79.4657,"stars":4,"review_count":132,"is_open":1,"iterator":104,"stars_food":4.3,"stars_service":4.2,"stars_ambience":3.9,"stars_value":4.1,"noise":"Quiet","recommend":87},{"id":"hDy-uY7Vy_TZdGBzw59lhA","name":"Saku Sushi","neighborhood":"Alexandra Park","address":"478 Queen Street W","city":"Toronto","state":"ON","postal_code":"M5V 2B2","latitude":43.6481,"longitude":-79.4003,"stars":4,"review_count":303,"is_open":1,"iterator":105,"stars_food":4.3,"stars_service":4.2,"stars_ambience":3.9,"stars_value":4.1,"noise":"Quiet","recommend":87},{"id":"HkHTdTvzbn-bmeQv_-2u0Q","name":"Bannock","neighborhood":"Downtown Core","address":"401 Bay Street","city":"Toronto","state":"ON","postal_code":"M5H 2Y4","latitude":43.6517,"longitude":-79.3814,"stars":4,"review_count":433,"is_open":1,"iterator":106,"stars_food":4.3,"stars_service":4.2,"stars_ambience":3.9,"stars_value":4.1,"noise":"Quiet","recommend":87},{"id":"hkZh4tAa2oJ34i8hxej6Zg","name":"The Gabardine","neighborhood":"Financial District","address":"372 Bay Street","city":"Toronto","state":"ON","postal_code":"M5H 2W9","latitude":43.651,"longitude":-79.3814,"stars":4,"review_count":325,"is_open":1,"iterator":107,"stars_food":4.3,"stars_service":4.2,"stars_ambience":3.9,"stars_value":4.1,"noise":"Quiet","recommend":87},{"id":"hLDEtvhH3Z5H1J5-3UM5kg","name":"Boralia","neighborhood":"Ossington Strip","address":"59 Ossington Avenue","city":"Toronto","state":"ON","postal_code":"M6J 2Y9","latitude":43.6456,"longitude":-79.4192,"stars":4.5,"review_count":122,"is_open":1,"iterator":108,"stars_food":4.6,"stars_service":4.5,"stars_ambience":4.3,"stars_value":4.2,"noise":"Moderate","recommend":92},{"id":"hm0y7QxT-UUmQcF074qV0g","name":"Boxcar Social","neighborhood":"Summer Hill","address":"1208 Yonge Street","city":"Toronto","state":"ON","postal_code":"M4T 1W1","latitude":43.6817,"longitude":-79.3915,"stars":4,"review_count":123,"is_open":1,"iterator":109,"stars_food":4.3,"stars_service":4.2,"stars_ambience":3.9,"stars_value":4.1,"noise":"Quiet","recommend":87},{"id":"hPXR-Bi8U-uz6TUViqmGpg","name":"Fat Ninja Bite","neighborhood":"Milliken","address":"3517 Kennedy Road, Unit 1","city":"Toronto","state":"ON","postal_code":"M1V 4Y3","latitude":43.8229,"longitude":-79.3066,"stars":4.5,"review_count":254,"is_open":1,"iterator":110,"stars_food":4.6,"stars_service":4.5,"stars_ambience":4.3,"stars_value":4.2,"noise":"Moderate","recommend":92},{"id":"hqi9zoHMqpSLy628aHGVOQ","name":"Jumbo Empanadas","neighborhood":"Kensington Market","address":"245 Augusta Avenue","city":"Toronto","state":"ON","postal_code":"M5T 1M5","latitude":43.6549,"longitude":-79.4021,"stars":4,"review_count":117,"is_open":1,"iterator":111,"stars_food":4.3,"stars_service":4.2,"stars_ambience":3.9,"stars_value":4.1,"noise":"Quiet","recommend":87},{"id":"HUYEadSbGSQNHXFmT2Ujjw","name":"Manpuku Japanese Eatery","neighborhood":"Downtown Core","address":"105 McCaul Street, Unit 29-31","city":"Toronto","state":"ON","postal_code":"M5T 2X4","latitude":43.6537,"longitude":-79.3909,"stars":4,"review_count":344,"is_open":1,"iterator":112,"stars_food":4.3,"stars_service":4.2,"stars_ambience":3.9,"stars_value":4.1,"noise":"Quiet","recommend":87},{"id":"hXVaXtDO9NnvCOSMtFuHRg","name":"Kawa Sushi","neighborhood":"Church-Wellesley Village","address":"451 Church Street","city":"Toronto","state":"ON","postal_code":"M4Y 2C5","latitude":43.6639,"longitude":-79.38,"stars":4,"review_count":108,"is_open":1,"iterator":113,"stars_food":4.3,"stars_service":4.2,"stars_ambience":3.9,"stars_value":4.1,"noise":"Quiet","recommend":87},{"id":"iAxsnFs3qq0Qx1EJ1S9SoQ","name":"Koyoi Restaurant & Bar","neighborhood":"Downtown Core","address":"2 Irwin Avenue","city":"Toronto","state":"ON","postal_code":"M4Y 1K9","latitude":43.6667,"longitude":-79.3855,"stars":4,"review_count":108,"is_open":1,"iterator":114,"stars_food":4.3,"stars_service":4.2,"stars_ambience":3.9,"stars_value":4.1,"noise":"Quiet","recommend":87},{"id":"Ibp4hEKSE8JaX9OvfEiFqg","name":"Otto's Berlin Döner","neighborhood":"Kensington Market","address":"256 Augusta Avenue","city":"Toronto","state":"ON","postal_code":"M5T 2L9","latitude":43.6562,"longitude":-79.4027,"stars":4,"review_count":176,"is_open":1,"iterator":115,"stars_food":4.3,"stars_service":4.2,"stars_ambience":3.9,"stars_value":4.1,"noise":"Quiet","recommend":87},{"id":"IfUkm42SB9D0m_ZbkQ711A","name":"The Fish Store & Sandwiches","neighborhood":"Little Italy","address":"657 College Street","city":"Toronto","state":"ON","postal_code":"M6G 1B7","latitude":43.6549,"longitude":-79.4163,"stars":4,"review_count":138,"is_open":1,"iterator":116,"stars_food":4.3,"stars_service":4.2,"stars_ambience":3.9,"stars_value":4.1,"noise":"Quiet","recommend":87},{"id":"iGEvDk6hsizigmXhDKs2Vg","name":"Seven Lives Tacos Y Mariscos","neighborhood":"Kensington Market","address":"69 Kensington Avenue","city":"Toronto","state":"ON","postal_code":"M5T 2K2","latitude":43.6543,"longitude":-79.4005,"stars":4.5,"review_count":945,"is_open":1,"iterator":117,"stars_food":4.6,"stars_service":4.5,"stars_ambience":4.3,"stars_value":4.2,"noise":"Moderate","recommend":92},{"id":"IiG1_hV_TyQgLzh2j8Zncg","name":"Cava","neighborhood":"Deer Park","address":"1560 Yonge Street","city":"Toronto","state":"ON","postal_code":"M4T 2S9","latitude":43.6896,"longitude":-79.395,"stars":4,"review_count":126,"is_open":1,"iterator":118,"stars_food":4.3,"stars_service":4.2,"stars_ambience":3.9,"stars_value":4.1,"noise":"Quiet","recommend":87},{"id":"j0aiaJkrU-5VgbCsdx-txg","name":"Chris Jerk Caribbean Bistro","neighborhood":"Scarborough","address":"2570 Birchmount Road","city":"Toronto","state":"ON","postal_code":"M1T 2M5","latitude":43.7903,"longitude":-79.3023,"stars":4.5,"review_count":217,"is_open":1,"iterator":119,"stars_food":4.6,"stars_service":4.5,"stars_ambience":4.3,"stars_value":4.2,"noise":"Moderate","recommend":92},{"id":"j29tuUdrfaxmGjwxHdHZPA","name":"Tango Palace Coffee Company","neighborhood":"Leslieville","address":"1156 Queen Street E","city":"Toronto","state":"ON","postal_code":"M4M 1L2","latitude":43.6626,"longitude":-79.3338,"stars":4,"review_count":104,"is_open":1,"iterator":120,"stars_food":4.3,"stars_service":4.2,"stars_ambience":3.9,"stars_value":4.1,"noise":"Quiet","recommend":87},{"id":"JccZKQS8-5Oikp0u30zZ8g","name":"Skin+Bones","neighborhood":"Leslieville","address":"980 Queen St E","city":"Toronto","state":"ON","postal_code":"M4M 1K1","latitude":43.6614,"longitude":-79.3397,"stars":4,"review_count":165,"is_open":1,"iterator":121,"stars_food":4.3,"stars_service":4.2,"stars_ambience":3.9,"stars_value":4.1,"noise":"Quiet","recommend":87},{"id":"JG9UpsFR6hrqQqsKh_RyaQ","name":"Planta","neighborhood":"Yorkville","address":"1221 Bay Street","city":"Toronto","state":"ON","postal_code":"M5R 3P5","latitude":43.6702,"longitude":-79.3894,"stars":4,"review_count":191,"is_open":1,"iterator":122,"stars_food":4.3,"stars_service":4.2,"stars_ambience":3.9,"stars_value":4.1,"noise":"Quiet","recommend":87},{"id":"JMiaNitMzMbJm6Kh0RbT5A","name":"Canoe","neighborhood":"Financial District","address":"66 Wellington Street  W, 54th Floor, TD Bank Tower","city":"Toronto","state":"ON","postal_code":"M5K 1H6","latitude":43.647,"longitude":-79.3822,"stars":4,"review_count":539,"is_open":1,"iterator":123,"stars_food":4.3,"stars_service":4.2,"stars_ambience":3.9,"stars_value":4.1,"noise":"Quiet","recommend":87},{"id":"Jm_bARKbaZyzoxatBrmZPQ","name":"Chadwick's","neighborhood":"The Annex","address":"268 Howland Avenue","city":"Toronto","state":"ON","postal_code":"M5R 3B6","latitude":43.6735,"longitude":-79.4119,"stars":4,"review_count":148,"is_open":1,"iterator":124,"stars_food":4.3,"stars_service":4.2,"stars_ambience":3.9,"stars_value":4.1,"noise":"Quiet","recommend":87},{"id":"Jo3Cpvf8fpfcAIFG3TagbQ","name":"Pantheon Restaurant","neighborhood":"Greektown","address":"407 Danforth Avenue","city":"Toronto","state":"ON","postal_code":"M4K 1P1","latitude":43.6776,"longitude":-79.3513,"stars":4,"review_count":247,"is_open":1,"iterator":125,"stars_food":4.3,"stars_service":4.2,"stars_ambience":3.9,"stars_value":4.1,"noise":"Quiet","recommend":87},{"id":"jTZYireK6pnPb6Rni0jygw","name":"Wow Sushi","neighborhood":"Downtown Core","address":"11 Charles Street W","city":"Toronto","state":"ON","postal_code":"M4Y 1R4","latitude":43.6685,"longitude":-79.3868,"stars":4,"review_count":337,"is_open":1,"iterator":126,"stars_food":4.3,"stars_service":4.2,"stars_ambience":3.9,"stars_value":4.1,"noise":"Quiet","recommend":87},{"id":"K-tKnqhblGR7K4R3roKmqA","name":"Kanga","neighborhood":"Queen Street West","address":"65 Duncan Street","city":"Toronto","state":"ON","postal_code":"M5V 1Z4","latitude":43.6499,"longitude":-79.3893,"stars":4,"review_count":149,"is_open":1,"iterator":127,"stars_food":4.3,"stars_service":4.2,"stars_ambience":3.9,"stars_value":4.1,"noise":"Quiet","recommend":87},{"id":"k1lSQ4VIqEn36UL1zkb3dw","name":"VIPS Sushi","neighborhood":"Willowdale","address":"9 Byng Avenue","city":"Toronto","state":"ON","postal_code":"M2N","latitude":43.7767,"longitude":-79.4141,"stars":4,"review_count":101,"is_open":1,"iterator":128,"stars_food":4.3,"stars_service":4.2,"stars_ambience":3.9,"stars_value":4.1,"noise":"Quiet","recommend":87},{"id":"K2CdjES-IZDDEgetOnf0Vw","name":"One2 Snacks","neighborhood":"Scarborough","address":"8 Glen Watford Drive, Unit 26","city":"Toronto","state":"ON","postal_code":"M1S 2C1","latitude":43.7872,"longitude":-79.2766,"stars":4.5,"review_count":138,"is_open":1,"iterator":129,"stars_food":4.6,"stars_service":4.5,"stars_ambience":4.3,"stars_value":4.2,"noise":"Moderate","recommend":92},{"id":"k3fn9JFiNLNy2q5p0cE1kg","name":"Carisma","neighborhood":"St. Lawrence","address":"73 King Street E","city":"Toronto","state":"ON","postal_code":"M5C 3J6","latitude":43.6496,"longitude":-79.3754,"stars":4.5,"review_count":122,"is_open":1,"iterator":130,"stars_food":4.6,"stars_service":4.5,"stars_ambience":4.3,"stars_value":4.2,"noise":"Moderate","recommend":92},{"id":"K3NW8TEu4QRQvFvHer8v4A","name":"Joso's","neighborhood":"Yorkville","address":"202 Davenport Road","city":"Toronto","state":"ON","postal_code":"M5R 1J2","latitude":43.6751,"longitude":-79.3961,"stars":4.5,"review_count":115,"is_open":1,"iterator":131,"stars_food":4.6,"stars_service":4.5,"stars_ambience":4.3,"stars_value":4.2,"noise":"Moderate","recommend":92},{"id":"k6zmSLmYAquCpJGKNnTgSQ","name":"The Stockyards","neighborhood":"Wychwood","address":"699 Saint Clair Avenue W","city":"Toronto","state":"ON","postal_code":"M6C 1B2","latitude":43.6813,"longitude":-79.4261,"stars":4,"review_count":646,"is_open":1,"iterator":132,"stars_food":4.3,"stars_service":4.2,"stars_ambience":3.9,"stars_value":4.1,"noise":"Quiet","recommend":87},{"id":"KcIalceIg6PSPONvLlI4-w","name":"Sud Forno","neighborhood":"Trinity Bellwoods","address":"716 Queen Street W","city":"Toronto","state":"ON","postal_code":"M6J 1E9","latitude":43.6463,"longitude":-79.409,"stars":4,"review_count":130,"is_open":1,"iterator":133,"stars_food":4.3,"stars_service":4.2,"stars_ambience":3.9,"stars_value":4.1,"noise":"Quiet","recommend":87},{"id":"kemSq9mBxmPaKHQrUXPJ_g","name":"Kupfert & Kim","neighborhood":"Financial District","address":"First Canadian Place, 100 King Street West","city":"Toronto","state":"ON","postal_code":"M5X 1C7","latitude":43.6486,"longitude":-79.3817,"stars":4,"review_count":113,"is_open":1,"iterator":134,"stars_food":4.3,"stars_service":4.2,"stars_ambience":3.9,"stars_value":4.1,"noise":"Quiet","recommend":87},{"id":"kOFDVcnj-8fd3doIpCQ06A","name":"Mildred's Temple Kitchen","neighborhood":"Liberty Village","address":"85 Hanna Avenue","city":"Toronto","state":"ON","postal_code":"M6K 3S3","latitude":43.6399,"longitude":-79.4204,"stars":4,"review_count":539,"is_open":1,"iterator":135,"stars_food":4.3,"stars_service":4.2,"stars_ambience":3.9,"stars_value":4.1,"noise":"Quiet","recommend":87},{"id":"KVpvE6pOPM9KMvak4HFsNg","name":"Pizzeria Libretto","neighborhood":"Ossington Strip","address":"221 Ossington Ave","city":"Toronto","state":"ON","postal_code":"M6J 2Z8","latitude":43.649,"longitude":-79.4203,"stars":4,"review_count":500,"is_open":1,"iterator":136,"stars_food":4.3,"stars_service":4.2,"stars_ambience":3.9,"stars_value":4.1,"noise":"Quiet","recommend":87},{"id":"KxHDiCOhHWQu_VOw8DMfJA","name":"The Hole In the Wall","neighborhood":"The Junction","address":"2867 Dundas Street W","city":"Toronto","state":"ON","postal_code":"M6P 1Y9","latitude":43.6653,"longitude":-79.4651,"stars":4.5,"review_count":131,"is_open":1,"iterator":137,"stars_food":4.6,"stars_service":4.5,"stars_ambience":4.3,"stars_value":4.2,"noise":"Moderate","recommend":92},{"id":"kYD9E14AijONhJ7rFsyLrg","name":"The Elm Tree Restaurant","neighborhood":"Downtown Core","address":"43 Elm Street","city":"Toronto","state":"ON","postal_code":"M5G 1H1","latitude":43.6573,"longitude":-79.3837,"stars":4.5,"review_count":168,"is_open":1,"iterator":138,"stars_food":4.6,"stars_service":4.5,"stars_ambience":4.3,"stars_value":4.2,"noise":"Moderate","recommend":92},{"id":"LCb2moBNkcBto_32rmZJ5A","name":"Echo Sushi","neighborhood":"Mount Pleasant and Davisville","address":"2036 Yonge Street","city":"Toronto","state":"ON","postal_code":"M4S 1Z9","latitude":43.7013,"longitude":-79.3972,"stars":4,"review_count":147,"is_open":1,"iterator":139,"stars_food":4.3,"stars_service":4.2,"stars_ambience":3.9,"stars_value":4.1,"noise":"Quiet","recommend":87},{"id":"lDpVyjENOz_qbxbRoyBi8w","name":"Black Camel","neighborhood":"Rosedale","address":"4 Crescent Road","city":"Toronto","state":"ON","postal_code":"M4W 1S9","latitude":43.6771,"longitude":-79.3892,"stars":4.5,"review_count":283,"is_open":1,"iterator":140,"stars_food":4.6,"stars_service":4.5,"stars_ambience":4.3,"stars_value":4.2,"noise":"Moderate","recommend":92},{"id":"Lfl9kppQhikig4xI3UdjOA","name":"Ritz Caribbean Foods","neighborhood":"Downtown Core","address":"450 Yonge Street","city":"Toronto","state":"ON","postal_code":"M4Y 1W9","latitude":43.6617,"longitude":-79.3834,"stars":4,"review_count":140,"is_open":1,"iterator":141,"stars_food":4.3,"stars_service":4.2,"stars_ambience":3.9,"stars_value":4.1,"noise":"Quiet","recommend":87},{"id":"LmIGu7WPby4lm8MpELlOMw","name":"Salad Days","neighborhood":"Yorkville","address":"Cumberland Terrace, 2 Bloor Street W","city":"Toronto","state":"ON","postal_code":"M4W 1A1","latitude":43.6705,"longitude":-79.3873,"stars":4.5,"review_count":109,"is_open":1,"iterator":142,"stars_food":4.6,"stars_service":4.5,"stars_ambience":4.3,"stars_value":4.2,"noise":"Moderate","recommend":92},{"id":"lVVJMvqu4LXL5rBqjO6eqg","name":"Tofu Village - House of Soon Tofu","neighborhood":"Koreatown","address":"681 Bloor Street W","city":"Toronto","state":"ON","postal_code":"M6G 4B9","latitude":43.6638,"longitude":-79.4167,"stars":4.5,"review_count":152,"is_open":1,"iterator":143,"stars_food":4.6,"stars_service":4.5,"stars_ambience":4.3,"stars_value":4.2,"noise":"Moderate","recommend":92},{"id":"L_tieGcFMQVSmk7XiA093A","name":"Chine Hot Pot & Noodles","neighborhood":"Chinatown","address":"327 Spadina Avenue, Unit A","city":"Toronto","state":"ON","postal_code":"M5T 2E9","latitude":43.6545,"longitude":-79.3984,"stars":4,"review_count":113,"is_open":1,"iterator":144,"stars_food":4.3,"stars_service":4.2,"stars_ambience":3.9,"stars_value":4.1,"noise":"Quiet","recommend":87},{"id":"m2hz26KM3kLN_AS5CcEjPg","name":"East Thirty-Six","neighborhood":"St. Lawrence","address":"36 Wellington Street E","city":"Toronto","state":"ON","postal_code":"M5E 1C7","latitude":43.6485,"longitude":-79.3751,"stars":4,"review_count":137,"is_open":1,"iterator":145,"stars_food":4.3,"stars_service":4.2,"stars_ambience":3.9,"stars_value":4.1,"noise":"Quiet","recommend":87},{"id":"m3U4Pey_Yr0jgJb8MHfy5g","name":"Rasta Pasta","neighborhood":"Kensington Market","address":"61 Kensington Avenue","city":"Toronto","state":"ON","postal_code":"M5T","latitude":43.6542,"longitude":-79.4004,"stars":4,"review_count":218,"is_open":1,"iterator":146,"stars_food":4.3,"stars_service":4.2,"stars_ambience":3.9,"stars_value":4.1,"noise":"Quiet","recommend":87},{"id":"mBOIef7a4hONEbSi_ai8Bw","name":"Beast","neighborhood":"Niagara","address":"96 Tecumseth Street","city":"Toronto","state":"ON","postal_code":"M6J 2H1","latitude":43.6441,"longitude":-79.4058,"stars":4,"review_count":330,"is_open":1,"iterator":147,"stars_food":4.3,"stars_service":4.2,"stars_ambience":3.9,"stars_value":4.1,"noise":"Quiet","recommend":87},{"id":"MC4becrrM9ntmnfMrD9b0g","name":"Sushi Ichiban Ellesmere","neighborhood":"Scarborough","address":"80 Ellesmere Road, Unit 1","city":"Toronto","state":"ON","postal_code":"M1R 4C2","latitude":43.7592,"longitude":-79.3111,"stars":4,"review_count":105,"is_open":1,"iterator":148,"stars_food":4.3,"stars_service":4.2,"stars_ambience":3.9,"stars_value":4.1,"noise":"Quiet","recommend":87},{"id":"McVmSLVRJBDWIuQO7D6GJg","name":"Soos","neighborhood":"Ossington Strip","address":"94 Ossington Avenue","city":"Toronto","state":"ON","postal_code":"M6J 2Y7","latitude":43.6463,"longitude":-79.4197,"stars":4,"review_count":118,"is_open":1,"iterator":149,"stars_food":4.3,"stars_service":4.2,"stars_ambience":3.9,"stars_value":4.1,"noise":"Quiet","recommend":87},{"id":"mES9E5K4HbYoPFXGv0pUuw","name":"Como En Casa","neighborhood":"Church-Wellesley Village","address":"565 Yonge Street","city":"Toronto","state":"ON","postal_code":"M4Y 1Z2","latitude":43.6653,"longitude":-79.3845,"stars":4,"review_count":182,"is_open":1,"iterator":150,"stars_food":4.3,"stars_service":4.2,"stars_ambience":3.9,"stars_value":4.1,"noise":"Quiet","recommend":87},{"id":"mkceCArNe87jwSdLfsslXg","name":"Bosk","neighborhood":"Financial District","address":"Shangri-La Hotel, 188 University Avenue","city":"Toronto","state":"ON","postal_code":"M5H 0A3","latitude":43.6495,"longitude":-79.3862,"stars":4,"review_count":121,"is_open":1,"iterator":151,"stars_food":4.3,"stars_service":4.2,"stars_ambience":3.9,"stars_value":4.1,"noise":"Quiet","recommend":87},{"id":"MMGnDeqMUNQsLC5V6BINjQ","name":"Mr.Tonkatsu","neighborhood":"The Annex","address":"520 Bloor Street W","city":"Toronto","state":"ON","postal_code":"M5S 1Y3","latitude":43.6654,"longitude":-79.4108,"stars":4,"review_count":146,"is_open":1,"iterator":152,"stars_food":4.3,"stars_service":4.2,"stars_ambience":3.9,"stars_value":4.1,"noise":"Quiet","recommend":87},{"id":"MS-hfug4QDXqb_Mws3qlzA","name":"Grand Electric","neighborhood":"Parkdale","address":"1330 Queen Street W","city":"Toronto","state":"ON","postal_code":"M6K 1L4","latitude":43.6417,"longitude":-79.4316,"stars":4,"review_count":586,"is_open":1,"iterator":153,"stars_food":4.3,"stars_service":4.2,"stars_ambience":3.9,"stars_value":4.1,"noise":"Quiet","recommend":87},{"id":"myJ6pgIhN42EQh2sAVXKoQ","name":"Toma Burger Addiction","neighborhood":"Niagara","address":"712 Queen Street W","city":"Toronto","state":"ON","postal_code":"M6J 1E8","latitude":43.6462,"longitude":-79.4089,"stars":4,"review_count":106,"is_open":1,"iterator":154,"stars_food":4.3,"stars_service":4.2,"stars_ambience":3.9,"stars_value":4.1,"noise":"Quiet","recommend":87},{"id":"mzREMIknfmagJugibXrCsQ","name":"Pho Tien Thanh","neighborhood":"Ossington Strip","address":"57 Ossington Ave","city":"Toronto","state":"ON","postal_code":"M6J 2Y9","latitude":43.6455,"longitude":-79.419,"stars":4,"review_count":296,"is_open":1,"iterator":155,"stars_food":4.3,"stars_service":4.2,"stars_ambience":3.9,"stars_value":4.1,"noise":"Quiet","recommend":87},{"id":"mZRKH9ngRY92bI_irrHq6w","name":"Richmond Station","neighborhood":"Downtown Core","address":"1 Richmond Street W","city":"Toronto","state":"ON","postal_code":"M5H 3W4","latitude":43.6514,"longitude":-79.3793,"stars":4.5,"review_count":515,"is_open":1,"iterator":156,"stars_food":4.6,"stars_service":4.5,"stars_ambience":4.3,"stars_value":4.2,"noise":"Moderate","recommend":92},{"id":"n-5dPbGyziS0SOkVDTquFQ","name":"Maki My Way","neighborhood":"Entertainment District","address":"293 King Street W","city":"Toronto","state":"ON","postal_code":"M5V 1J5","latitude":43.6464,"longitude":-79.39,"stars":4,"review_count":131,"is_open":1,"iterator":157,"stars_food":4.3,"stars_service":4.2,"stars_ambience":3.9,"stars_value":4.1,"noise":"Quiet","recommend":87},{"id":"N93EYZy9R0sdlEvubu94ig","name":"Banh Mi Boys","neighborhood":"Queen Street West","address":"392 Queen Street W","city":"Toronto","state":"ON","postal_code":"M5V 2A9","latitude":43.6488,"longitude":-79.397,"stars":4,"review_count":973,"is_open":1,"iterator":158,"stars_food":4.3,"stars_service":4.2,"stars_ambience":3.9,"stars_value":4.1,"noise":"Quiet","recommend":87},{"id":"nHFJtud7jWZhM9dHQ1eIRA","name":"Buk Chang Dong Soon Tofu","neighborhood":"Koreatown","address":"691 Bloor Street W","city":"Toronto","state":"ON","postal_code":"M6G 1L3","latitude":43.6636,"longitude":-79.417,"stars":4,"review_count":381,"is_open":1,"iterator":159,"stars_food":4.3,"stars_service":4.2,"stars_ambience":3.9,"stars_value":4.1,"noise":"Quiet","recommend":87},{"id":"nJBwEYaulNXHPAUP0OBRtg","name":"FIKA","neighborhood":"Kensington Market","address":"28 Kensington Avenue","city":"Toronto","state":"ON","postal_code":"M5T 2J9","latitude":43.6536,"longitude":-79.4004,"stars":4,"review_count":136,"is_open":1,"iterator":160,"stars_food":4.3,"stars_service":4.2,"stars_ambience":3.9,"stars_value":4.1,"noise":"Quiet","recommend":87},{"id":"nKeGPmH5dYNVL5AyAItuKg","name":"Restaurant Chantecler","neighborhood":"Parkdale","address":"1320 Queen Street W","city":"Toronto","state":"ON","postal_code":"M6K 1L4","latitude":43.6417,"longitude":-79.4312,"stars":4,"review_count":131,"is_open":1,"iterator":161,"stars_food":4.3,"stars_service":4.2,"stars_ambience":3.9,"stars_value":4.1,"noise":"Quiet","recommend":87},{"id":"nqTvE7ivdU23oUWdI01tOA","name":"Under The Table Restaurant","neighborhood":"Cabbagetown","address":"568 Parliament Street","city":"Toronto","state":"ON","postal_code":"M4X 1P8","latitude":43.6674,"longitude":-79.3695,"stars":4.5,"review_count":366,"is_open":1,"iterator":162,"stars_food":4.6,"stars_service":4.5,"stars_ambience":4.3,"stars_value":4.2,"noise":"Moderate","recommend":92},{"id":"NrJSy3dgcXErFtOKGREmnw","name":"Aft Kitchen & Bar","neighborhood":"Riverdale","address":"686 Queen Street E","city":"Toronto","state":"ON","postal_code":"M4M 1H1","latitude":43.6588,"longitude":-79.3508,"stars":4,"review_count":142,"is_open":1,"iterator":163,"stars_food":4.3,"stars_service":4.2,"stars_ambience":3.9,"stars_value":4.1,"noise":"Quiet","recommend":87},{"id":"nrq5H3LZicjMG0wv7gy08g","name":"Kintaro","neighborhood":"Church-Wellesley Village","address":"459 Church Street","city":"Toronto","state":"ON","postal_code":"M4Y 4C5","latitude":43.6642,"longitude":-79.3803,"stars":4,"review_count":102,"is_open":1,"iterator":164,"stars_food":4.3,"stars_service":4.2,"stars_ambience":3.9,"stars_value":4.1,"noise":"Quiet","recommend":87},{"id":"NtII1vBcP1CiAs54kY1JQw","name":"Danforth Pizza House","neighborhood":"The Danforth","address":"920 Danforth Avenue","city":"Toronto","state":"ON","postal_code":"M4J 1L9","latitude":43.6804,"longitude":-79.3388,"stars":4,"review_count":106,"is_open":1,"iterator":165,"stars_food":4.3,"stars_service":4.2,"stars_ambience":3.9,"stars_value":4.1,"noise":"Quiet","recommend":87},{"id":"Nz44ccUso3nq5S2OlQHNlA","name":"Mexico Lindo","neighborhood":"Scarborough","address":"2586 Birchmount Road","city":"Toronto","state":"ON","postal_code":"M1T 2M5","latitude":43.79,"longitude":-79.3021,"stars":4,"review_count":125,"is_open":1,"iterator":166,"stars_food":4.3,"stars_service":4.2,"stars_ambience":3.9,"stars_value":4.1,"noise":"Quiet","recommend":87},{"id":"n_-CwlqV8fzEIUPky8Ibtw","name":"The Oxley","neighborhood":"Yorkville","address":"121 Yorkville Avenue","city":"Toronto","state":"ON","postal_code":"M5R 1C4","latitude":43.6707,"longitude":-79.3931,"stars":4,"review_count":104,"is_open":1,"iterator":167,"stars_food":4.3,"stars_service":4.2,"stars_ambience":3.9,"stars_value":4.1,"noise":"Quiet","recommend":87},{"id":"O-uIEuv7JLUHajkemx_sVw","name":"Beerbistro","neighborhood":"Downtown Core","address":"18 King Street E","city":"Toronto","state":"ON","postal_code":"M5C 1C4","latitude":43.6498,"longitude":-79.3771,"stars":4,"review_count":546,"is_open":1,"iterator":168,"stars_food":4.3,"stars_service":4.2,"stars_ambience":3.9,"stars_value":4.1,"noise":"Quiet","recommend":87},{"id":"o6Yor6ofIw2TqM3mN28Kzg","name":"Tacos El Asador","neighborhood":"Koreatown","address":"689 Bloor Street W","city":"Toronto","state":"ON","postal_code":"M6G 1L2","latitude":43.6639,"longitude":-79.417,"stars":4,"review_count":244,"is_open":1,"iterator":169,"stars_food":4.3,"stars_service":4.2,"stars_ambience":3.9,"stars_value":4.1,"noise":"Quiet","recommend":87},{"id":"oc8204pyvf9ixdA4JzzaLA","name":"The Good Son","neighborhood":"Beaconsfield Village","address":"1096 Queen Street W","city":"Toronto","state":"ON","postal_code":"M6J 1H9","latitude":43.6434,"longitude":-79.4227,"stars":4,"review_count":128,"is_open":1,"iterator":170,"stars_food":4.3,"stars_service":4.2,"stars_ambience":3.9,"stars_value":4.1,"noise":"Quiet","recommend":87},{"id":"ofw8aDSEg1HoQdmCgvLtaQ","name":"The Pie Commission","neighborhood":"Etobicoke","address":"935 Queensway","city":"Toronto","state":"ON","postal_code":"M8Z 1P4","latitude":43.6239,"longitude":-79.5121,"stars":4.5,"review_count":194,"is_open":1,"iterator":171,"stars_food":4.6,"stars_service":4.5,"stars_ambience":4.3,"stars_value":4.2,"noise":"Moderate","recommend":92},{"id":"OIdOJaNS8M624F58XGV3PQ","name":"Pizzeria Libretto Danforth","neighborhood":"Greektown","address":"550 Danforth Avenue","city":"Toronto","state":"ON","postal_code":"M4K 1P7","latitude":43.6786,"longitude":-79.3476,"stars":4,"review_count":268,"is_open":1,"iterator":172,"stars_food":4.3,"stars_service":4.2,"stars_ambience":3.9,"stars_value":4.1,"noise":"Quiet","recommend":87},{"id":"oJSa5HCiZXKLXxggQmecEQ","name":"Campagnolo","neighborhood":"Little Italy","address":"832 Dundas Street W","city":"Toronto","state":"ON","postal_code":"M6J 1V3","latitude":43.6517,"longitude":-79.4095,"stars":4,"review_count":187,"is_open":1,"iterator":173,"stars_food":4.3,"stars_service":4.2,"stars_ambience":3.9,"stars_value":4.1,"noise":"Quiet","recommend":87},{"id":"oOGLDf2rzeCPS7UQ8hhPlQ","name":"SU&BU","neighborhood":"Entertainment District","address":"106 John Street, Unit B","city":"Toronto","state":"ON","postal_code":"M5H 1X9","latitude":43.6472,"longitude":-79.3902,"stars":4,"review_count":125,"is_open":1,"iterator":174,"stars_food":4.3,"stars_service":4.2,"stars_ambience":3.9,"stars_value":4.1,"noise":"Quiet","recommend":87},{"id":"oWTn2IzrprsRkPfULtjZtQ","name":"The Burger's Priest","neighborhood":"Upper Beach","address":"1636 Queen Street E","city":"Toronto","state":"ON","postal_code":"M4L 1G3","latitude":43.6667,"longitude":-79.3156,"stars":4,"review_count":418,"is_open":1,"iterator":175,"stars_food":4.3,"stars_service":4.2,"stars_ambience":3.9,"stars_value":4.1,"noise":"Quiet","recommend":87},{"id":"O_UC_izJXcAmkm6HlEyGSA","name":"Playa Cabana","neighborhood":"The Annex","address":"111 Dupont Street","city":"Toronto","state":"ON","postal_code":"M5R 1V4","latitude":43.676,"longitude":-79.4012,"stars":4,"review_count":363,"is_open":1,"iterator":176,"stars_food":4.3,"stars_service":4.2,"stars_ambience":3.9,"stars_value":4.1,"noise":"Quiet","recommend":87},{"id":"pEH8XwiyGOe1t7GlboAgGw","name":"Los Colibris","neighborhood":"Entertainment District","address":"220 King Street W","city":"Toronto","state":"ON","postal_code":"M5V 3M2","latitude":43.6473,"longitude":-79.3871,"stars":4,"review_count":145,"is_open":1,"iterator":177,"stars_food":4.3,"stars_service":4.2,"stars_ambience":3.9,"stars_value":4.1,"noise":"Quiet","recommend":87},{"id":"PiLfiQYyDNgBaAvSL58cqg","name":"Okonomi House Restaurant","neighborhood":"Downtown Core","address":"23 Charles Street W","city":"Toronto","state":"ON","postal_code":"M4Y 2R4","latitude":43.6683,"longitude":-79.3871,"stars":4,"review_count":188,"is_open":1,"iterator":178,"stars_food":4.3,"stars_service":4.2,"stars_ambience":3.9,"stars_value":4.1,"noise":"Quiet","recommend":87},{"id":"pSMK_FtULKiU-iuh7SMKwg","name":"Blaze Fast-Fire'd Pizza","neighborhood":"Ryerson","address":"10 Dundas Street East, #124","city":"Toronto","state":"ON","postal_code":"M5B 2G9","latitude":43.6565,"longitude":-79.38,"stars":4.5,"review_count":333,"is_open":1,"iterator":179,"stars_food":4.6,"stars_service":4.5,"stars_ambience":4.3,"stars_value":4.2,"noise":"Moderate","recommend":92},{"id":"pZ1quwXnYozLIZIVABojhw","name":"Black Hoof","neighborhood":"Little Italy","address":"928 Dundas Street W","city":"Toronto","state":"ON","postal_code":"M6J 1W3","latitude":43.651,"longitude":-79.4133,"stars":4,"review_count":443,"is_open":1,"iterator":180,"stars_food":4.3,"stars_service":4.2,"stars_ambience":3.9,"stars_value":4.1,"noise":"Quiet","recommend":87},{"id":"Q4RSmF0s-AkaegrLFCLEbg","name":"Donatello Restaurant","neighborhood":"Downtown Core","address":"37 Elm Street","city":"Toronto","state":"ON","postal_code":"M5G 1H1","latitude":43.6574,"longitude":-79.3835,"stars":4,"review_count":115,"is_open":1,"iterator":181,"stars_food":4.3,"stars_service":4.2,"stars_ambience":3.9,"stars_value":4.1,"noise":"Quiet","recommend":87},{"id":"q5xrVJ4kivx_yEfJeOKNYQ","name":"Bar Isabel","neighborhood":"Bickford Park","address":"797 College Street","city":"Toronto","state":"ON","postal_code":"M6G 1C6","latitude":43.6546,"longitude":-79.4208,"stars":4,"review_count":343,"is_open":1,"iterator":182,"stars_food":4.3,"stars_service":4.2,"stars_ambience":3.9,"stars_value":4.1,"noise":"Quiet","recommend":87},{"id":"q7MorRPzU_J-iekeDKUKgw","name":"Reposado Bar & Lounge","neighborhood":"Ossington Strip","address":"136 Ossington Avenue","city":"Toronto","state":"ON","postal_code":"M6J 2Z5","latitude":43.6472,"longitude":-79.42,"stars":4,"review_count":115,"is_open":1,"iterator":183,"stars_food":4.3,"stars_service":4.2,"stars_ambience":3.9,"stars_value":4.1,"noise":"Quiet","recommend":87},{"id":"qaNt4vtVdge_S68DVjw5Jg","name":"The Queen And Beaver Public House","neighborhood":"Downtown Core","address":"35 Elm Street","city":"Toronto","state":"ON","postal_code":"M5G 1H1","latitude":43.6574,"longitude":-79.3834,"stars":4,"review_count":318,"is_open":1,"iterator":184,"stars_food":4.3,"stars_service":4.2,"stars_ambience":3.9,"stars_value":4.1,"noise":"Quiet","recommend":87},{"id":"QaxDKkqYTtVYZJcqBNTnvQ","name":"Yummy Yummy Dumplings","neighborhood":"Downtown Core","address":"79 Huron Street","city":"Toronto","state":"ON","postal_code":"M5T 2A8","latitude":43.6538,"longitude":-79.396,"stars":4,"review_count":167,"is_open":1,"iterator":185,"stars_food":4.3,"stars_service":4.2,"stars_ambience":3.9,"stars_value":4.1,"noise":"Quiet","recommend":87},{"id":"QF4tRJ-ot7dYwebAsn0seg","name":"Mengrai Thai","neighborhood":"Corktown","address":"82 Ontario Street","city":"Toronto","state":"ON","postal_code":"M5A 2V3","latitude":43.6541,"longitude":-79.3671,"stars":4,"review_count":230,"is_open":1,"iterator":186,"stars_food":4.3,"stars_service":4.2,"stars_ambience":3.9,"stars_value":4.1,"noise":"Quiet","recommend":87},{"id":"qKUbPdzNQpdSP2mhk3tREg","name":"Moo Frites","neighborhood":"Kensington Market","address":"178 Baldwin Street","city":"Toronto","state":"ON","postal_code":"M5T 1L8","latitude":43.6548,"longitude":-79.4007,"stars":4,"review_count":157,"is_open":1,"iterator":187,"stars_food":4.3,"stars_service":4.2,"stars_ambience":3.9,"stars_value":4.1,"noise":"Quiet","recommend":87},{"id":"Qmwfg-PtYuCo5Q_IwcA_HQ","name":"JaBistro","neighborhood":"Entertainment District","address":"222 Richmond Street W","city":"Toronto","state":"ON","postal_code":"M5V 1W4","latitude":43.6497,"longitude":-79.3881,"stars":4,"review_count":372,"is_open":1,"iterator":188,"stars_food":4.3,"stars_service":4.2,"stars_ambience":3.9,"stars_value":4.1,"noise":"Quiet","recommend":87},{"id":"QNfh79NwsNnl-AngRhg2ww","name":"Kingyo","neighborhood":"Cabbagetown","address":"51B Winchester Street","city":"Toronto","state":"ON","postal_code":"M4X 1R7","latitude":43.6659,"longitude":-79.3683,"stars":4,"review_count":251,"is_open":1,"iterator":189,"stars_food":4.3,"stars_service":4.2,"stars_ambience":3.9,"stars_value":4.1,"noise":"Quiet","recommend":87},{"id":"qPVqfJAzC8APF8aWGBtFRA","name":"Antler Kitchen & Bar","neighborhood":"Little Portugal","address":"1454 Dundas Street W","city":"Toronto","state":"ON","postal_code":"M6J 1Y6","latitude":43.6497,"longitude":-79.4306,"stars":4.5,"review_count":102,"is_open":1,"iterator":190,"stars_food":4.6,"stars_service":4.5,"stars_ambience":4.3,"stars_value":4.2,"noise":"Moderate","recommend":92},{"id":"qUWqjjjfpB2-4P3He5rsKw","name":"Levetto","neighborhood":"Chinatown","address":"382 Spadina Avenue, Main Floor","city":"Toronto","state":"ON","postal_code":"M5T 2G5","latitude":43.6553,"longitude":-79.3993,"stars":4,"review_count":116,"is_open":1,"iterator":191,"stars_food":4.3,"stars_service":4.2,"stars_ambience":3.9,"stars_value":4.1,"noise":"Quiet","recommend":87},{"id":"rO3lZpVSoRMhhd0AEJBjlg","name":"Sunrise House","neighborhood":"Koreatown","address":"661 Bloor Street W","city":"Toronto","state":"ON","postal_code":"M6G 1L1","latitude":43.6641,"longitude":-79.4157,"stars":4,"review_count":152,"is_open":1,"iterator":192,"stars_food":4.3,"stars_service":4.2,"stars_ambience":3.9,"stars_value":4.1,"noise":"Quiet","recommend":87},{"id":"RrqcZLX05djKo1GVLMXMDQ","name":"Korean Village Restaurant","neighborhood":"Koreatown","address":"628 Bloor Street W","city":"Toronto","state":"ON","postal_code":"M6G 1K7","latitude":43.6645,"longitude":-79.4144,"stars":4,"review_count":245,"is_open":1,"iterator":193,"stars_food":4.3,"stars_service":4.2,"stars_ambience":3.9,"stars_value":4.1,"noise":"Quiet","recommend":87},{"id":"RtUvSWO_UZ8V3Wpj0n077w","name":"KINKA IZAKAYA ORIGINAL","neighborhood":"Downtown Core","address":"398 Church St","city":"Toronto","state":"ON","postal_code":"M5B 2A2","latitude":43.6605,"longitude":-79.3789,"stars":4,"review_count":1184,"is_open":1,"iterator":194,"stars_food":4.3,"stars_service":4.2,"stars_ambience":3.9,"stars_value":4.1,"noise":"Quiet","recommend":87},{"id":"RyDiwx4xD3Lx8sWHx1aFlQ","name":"Smoque N' Bones","neighborhood":"Niagara","address":"869 Queen Street W","city":"Toronto","state":"ON","postal_code":"M6J 1G4","latitude":43.6457,"longitude":-79.4107,"stars":4,"review_count":297,"is_open":1,"iterator":195,"stars_food":4.3,"stars_service":4.2,"stars_ambience":3.9,"stars_value":4.1,"noise":"Quiet","recommend":87},{"id":"r_BrIgzYcwo1NAuG9dLbpg","name":"Pai Northern Thai Kitchen","neighborhood":"Entertainment District","address":"18 Duncan Street","city":"Toronto","state":"ON","postal_code":"M5H 3G8","latitude":43.6479,"longitude":-79.3886,"stars":4.5,"review_count":1494,"is_open":1,"iterator":196,"stars_food":4.6,"stars_service":4.5,"stars_ambience":4.3,"stars_value":4.2,"noise":"Moderate","recommend":92},{"id":"saijdv-vXJrvsCfvr7SZOw","name":"Katsuya","neighborhood":"Downtown Core","address":"66 Gerrard Street E, Unit 100","city":"Toronto","state":"ON","postal_code":"M5B 2M2","latitude":43.66,"longitude":-79.3788,"stars":4.5,"review_count":111,"is_open":1,"iterator":197,"stars_food":4.6,"stars_service":4.5,"stars_ambience":4.3,"stars_value":4.2,"noise":"Moderate","recommend":92},{"id":"sGAbBm8eX6DY5R5S2NSy6g","name":"Shangri-La Hotel","neighborhood":"Financial District","address":"188 University Avenue","city":"Toronto","state":"ON","postal_code":"M5H 0A3","latitude":43.6493,"longitude":-79.3859,"stars":4,"review_count":107,"is_open":1,"iterator":198,"stars_food":4.3,"stars_service":4.2,"stars_ambience":3.9,"stars_value":4.1,"noise":"Quiet","recommend":87},{"id":"SGP1jf6k7spXkgwBlhiUVw","name":"Kekou Gelato House","neighborhood":"Downtown Core","address":"13 Baldwin Street","city":"Toronto","state":"ON","postal_code":"M5T 1L1","latitude":43.656,"longitude":-79.3927,"stars":4.5,"review_count":363,"is_open":1,"iterator":199,"stars_food":4.6,"stars_service":4.5,"stars_ambience":4.3,"stars_value":4.2,"noise":"Moderate","recommend":92},{"id":"SjgeuBlgKER9yegpoxT99w","name":"Nomé Izakaya","neighborhood":"Willowdale","address":"4848 Yonge Street","city":"Toronto","state":"ON","postal_code":"M2N 5N2","latitude":43.7626,"longitude":-79.4115,"stars":4,"review_count":416,"is_open":1,"iterator":200,"stars_food":4.3,"stars_service":4.2,"stars_ambience":3.9,"stars_value":4.1,"noise":"Quiet","recommend":87},{"id":"Sk0Ycurq7D083Qs8x65b_Q","name":"George","neighborhood":"Corktown","address":"111 Queen Street E","city":"Toronto","state":"ON","postal_code":"M5C 1S2","latitude":43.6533,"longitude":-79.3741,"stars":4.5,"review_count":200,"is_open":1,"iterator":201,"stars_food":4.6,"stars_service":4.5,"stars_ambience":4.3,"stars_value":4.2,"noise":"Moderate","recommend":92},{"id":"sRirP65Q7BSg3Lj9FdkKWQ","name":"Gandhi Cuisine","neighborhood":"Alexandra Park","address":"554 Queen Street  W","city":"Toronto","state":"ON","postal_code":"M5V 1V2","latitude":43.6475,"longitude":-79.4031,"stars":4,"review_count":243,"is_open":1,"iterator":202,"stars_food":4.3,"stars_service":4.2,"stars_ambience":3.9,"stars_value":4.1,"noise":"Quiet","recommend":87},{"id":"SW6ZQk22G1_CV81_gfnvNQ","name":"La Carnita","neighborhood":"Little Italy","address":"501 College Street","city":"Toronto","state":"ON","postal_code":"M5S 2K2","latitude":43.656,"longitude":-79.4097,"stars":4,"review_count":445,"is_open":1,"iterator":203,"stars_food":4.3,"stars_service":4.2,"stars_ambience":3.9,"stars_value":4.1,"noise":"Quiet","recommend":87},{"id":"sXg2NCfiCqK_X_4R5NK_jQ","name":"BarChef","neighborhood":"Alexandra Park","address":"472 Queen Street W","city":"Toronto","state":"ON","postal_code":"M5V 2B2","latitude":43.6482,"longitude":-79.4002,"stars":4,"review_count":258,"is_open":1,"iterator":204,"stars_food":4.3,"stars_service":4.2,"stars_ambience":3.9,"stars_value":4.1,"noise":"Quiet","recommend":87},{"id":"SxvKjtbq5qRlFoXrU8Bo9Q","name":"Descendant Detroit Style Pizza","neighborhood":"Leslieville","address":"1168 Queen Street E","city":"Toronto","state":"ON","postal_code":"M4M 1L5","latitude":43.6628,"longitude":-79.3322,"stars":4.5,"review_count":179,"is_open":1,"iterator":205,"stars_food":4.6,"stars_service":4.5,"stars_ambience":4.3,"stars_value":4.2,"noise":"Moderate","recommend":92},{"id":"T4g4k2OhCTsiqcP-ZXElHQ","name":"Jules Bistro","neighborhood":"Entertainment District","address":"147 Spadina Avenue","city":"Toronto","state":"ON","postal_code":"M5V 2L7","latitude":43.6481,"longitude":-79.3957,"stars":4,"review_count":158,"is_open":1,"iterator":206,"stars_food":4.3,"stars_service":4.2,"stars_ambience":3.9,"stars_value":4.1,"noise":"Quiet","recommend":87},{"id":"T7yKffTuhiIZclsgjfgowA","name":"Pizzeria Via Mercanti","neighborhood":"Kensington Market","address":"188 Augusta Avenue","city":"Toronto","state":"ON","postal_code":"M5T 1M1","latitude":43.6541,"longitude":-79.402,"stars":4,"review_count":176,"is_open":1,"iterator":207,"stars_food":4.3,"stars_service":4.2,"stars_ambience":3.9,"stars_value":4.1,"noise":"Quiet","recommend":87},{"id":"TATCbqRSFNkmC_xNvNmmUA","name":"Yutaka","neighborhood":"Downtown Core","address":"157 Dundas Street W","city":"Toronto","state":"ON","postal_code":"M5G 1C5","latitude":43.6552,"longitude":-79.3858,"stars":4,"review_count":117,"is_open":1,"iterator":208,"stars_food":4.3,"stars_service":4.2,"stars_ambience":3.9,"stars_value":4.1,"noise":"Quiet","recommend":87},{"id":"tCjlXROlbcaGiBRfU2jaiw","name":"The Keg Steakhouse + Bar - Mansion","neighborhood":"Church-Wellesley Village","address":"515 Jarvis Street","city":"Toronto","state":"ON","postal_code":"M4Y 2H7","latitude":43.6668,"longitude":-79.3784,"stars":4,"review_count":261,"is_open":1,"iterator":209,"stars_food":4.3,"stars_service":4.2,"stars_ambience":3.9,"stars_value":4.1,"noise":"Quiet","recommend":87},{"id":"td9FZybutwNG7DgocHCiXA","name":"Lai Wah Heen","neighborhood":"Downtown Core","address":"108 Chestnut Street","city":"Toronto","state":"ON","postal_code":"M5G 1R3","latitude":43.6547,"longitude":-79.3862,"stars":4,"review_count":159,"is_open":1,"iterator":210,"stars_food":4.3,"stars_service":4.2,"stars_ambience":3.9,"stars_value":4.1,"noise":"Quiet","recommend":87},{"id":"TLMysu1mWiLEslCBon5W1g","name":"Sidecar","neighborhood":"Little Italy","address":"577 College Street","city":"Toronto","state":"ON","postal_code":"M6G 1B2","latitude":43.6552,"longitude":-79.4131,"stars":4,"review_count":221,"is_open":1,"iterator":211,"stars_food":4.3,"stars_service":4.2,"stars_ambience":3.9,"stars_value":4.1,"noise":"Quiet","recommend":87},{"id":"Tn8O4tv1U-n0PRC8kbJJPg","name":"Nguyen Huong Food","neighborhood":"Chinatown","address":"322 Spadina Avenue","city":"Toronto","state":"ON","postal_code":"M5T 2G2","latitude":43.6537,"longitude":-79.3986,"stars":4,"review_count":143,"is_open":1,"iterator":212,"stars_food":4.3,"stars_service":4.2,"stars_ambience":3.9,"stars_value":4.1,"noise":"Quiet","recommend":87},{"id":"TR0-w6VoZDAdvFQiq7P2Ug","name":"Millie Creperie","neighborhood":"Chinatown","address":"161 Baldwin Street","city":"Toronto","state":"ON","postal_code":"M5T 1L8","latitude":43.6549,"longitude":-79.3997,"stars":4,"review_count":322,"is_open":1,"iterator":213,"stars_food":4.3,"stars_service":4.2,"stars_ambience":3.9,"stars_value":4.1,"noise":"Quiet","recommend":87},{"id":"trKyIRyjKqVSZmcU0AnICQ","name":"Pearl Diver","neighborhood":"Corktown","address":"100 Adelaide Street E","city":"Toronto","state":"ON","postal_code":"M5C 1K9","latitude":43.6516,"longitude":-79.3738,"stars":4,"review_count":423,"is_open":1,"iterator":214,"stars_food":4.3,"stars_service":4.2,"stars_ambience":3.9,"stars_value":4.1,"noise":"Quiet","recommend":87},{"id":"ts_kVtBEAJsdmdoqxRDdRQ","name":"Tabule Restaurant","neighborhood":"Mount Pleasant and Davisville","address":"2009 Yonge Street","city":"Toronto","state":"ON","postal_code":"M4S 1Z8","latitude":43.701,"longitude":-79.3969,"stars":4,"review_count":193,"is_open":1,"iterator":215,"stars_food":4.3,"stars_service":4.2,"stars_ambience":3.9,"stars_value":4.1,"noise":"Quiet","recommend":87},{"id":"ttuEwktrkmh3TUlSFPZqAA","name":"Banh Mi Boys","neighborhood":"Ryerson","address":"399 Yonge Street","city":"Toronto","state":"ON","postal_code":"M5B","latitude":43.6591,"longitude":-79.3821,"stars":4,"review_count":390,"is_open":1,"iterator":216,"stars_food":4.3,"stars_service":4.2,"stars_ambience":3.9,"stars_value":4.1,"noise":"Quiet","recommend":87},{"id":"tTzQZTrwBgwxMch77nCJfQ","name":"Hibiscus","neighborhood":"Kensington Market","address":"238 Augusta Avenue","city":"Toronto","state":"ON","postal_code":"M5T 2L7","latitude":43.6554,"longitude":-79.4024,"stars":4,"review_count":227,"is_open":1,"iterator":217,"stars_food":4.3,"stars_service":4.2,"stars_ambience":3.9,"stars_value":4.1,"noise":"Quiet","recommend":87},{"id":"tWdp26XQEJqJGnRmFVJQxA","name":"Mangia & Bevi","neighborhood":"Corktown","address":"260 King Street E","city":"Toronto","state":"ON","postal_code":"M5R 4L5","latitude":43.6522,"longitude":-79.3663,"stars":4,"review_count":148,"is_open":1,"iterator":218,"stars_food":4.3,"stars_service":4.2,"stars_ambience":3.9,"stars_value":4.1,"noise":"Quiet","recommend":87},{"id":"tzl4KHt6ZAwyUJIEyemrtQ","name":"Smith Bros.","neighborhood":"Scarborough","address":"880 Warden Avenue","city":"Toronto","state":"ON","postal_code":"M1L 4W6","latitude":43.7289,"longitude":-79.2882,"stars":4,"review_count":234,"is_open":1,"iterator":219,"stars_food":4.3,"stars_service":4.2,"stars_ambience":3.9,"stars_value":4.1,"noise":"Quiet","recommend":87},{"id":"U-a61zpbsDNVtKm9W1aqLw","name":"Jimmy's Coffee","neighborhood":"Downtown Core","address":"84 Gerrard Street W","city":"Toronto","state":"ON","postal_code":"M5G","latitude":43.6584,"longitude":-79.3856,"stars":4.5,"review_count":113,"is_open":1,"iterator":220,"stars_food":4.6,"stars_service":4.5,"stars_ambience":4.3,"stars_value":4.2,"noise":"Moderate","recommend":92},{"id":"U4iqELk1IiqARpk5uJJOZg","name":"Eva's Original Chimneys","neighborhood":"The Annex","address":"454 Bloor Street W","city":"Toronto","state":"ON","postal_code":"M5S 1X8","latitude":43.6657,"longitude":-79.4091,"stars":4,"review_count":186,"is_open":1,"iterator":221,"stars_food":4.3,"stars_service":4.2,"stars_ambience":3.9,"stars_value":4.1,"noise":"Quiet","recommend":87},{"id":"ubDO6BYjnPSIZIpWxXGdlQ","name":"Karine's","neighborhood":"Downtown Core","address":"109 McCaul Street, Unit 32","city":"Toronto","state":"ON","postal_code":"M5T 3K5","latitude":43.6542,"longitude":-79.3912,"stars":4,"review_count":186,"is_open":1,"iterator":222,"stars_food":4.3,"stars_service":4.2,"stars_ambience":3.9,"stars_value":4.1,"noise":"Quiet","recommend":87},{"id":"ucgzkl7atsBMGu4gGpmHfw","name":"Peter Pan Bistro","neighborhood":"Queen Street West","address":"373 Queen Street W","city":"Toronto","state":"ON","postal_code":"M5V 2A4","latitude":43.6493,"longitude":-79.3936,"stars":4,"review_count":113,"is_open":1,"iterator":223,"stars_food":4.3,"stars_service":4.2,"stars_ambience":3.9,"stars_value":4.1,"noise":"Quiet","recommend":87},{"id":"uChTCA6MsLAciDRklpO-Fw","name":"Makkal Chon","neighborhood":"Scarborough","address":"1979 Lawrence Avenue E","city":"Toronto","state":"ON","postal_code":"M1R 2Z2","latitude":43.7449,"longitude":-79.2966,"stars":4,"review_count":240,"is_open":1,"iterator":224,"stars_food":4.3,"stars_service":4.2,"stars_ambience":3.9,"stars_value":4.1,"noise":"Quiet","recommend":87},{"id":"UDk7qUVIetK3Y3NuARguqg","name":"Banjara Indian Cuisine","neighborhood":"Christie Pits","address":"796 Bloor Street W","city":"Toronto","state":"ON","postal_code":"M6G 1L7","latitude":43.6632,"longitude":-79.4219,"stars":4,"review_count":339,"is_open":1,"iterator":225,"stars_food":4.3,"stars_service":4.2,"stars_ambience":3.9,"stars_value":4.1,"noise":"Quiet","recommend":87},{"id":"ufwkkMd9yr9cFU1R5ONArg","name":"Huevos Gourmet","neighborhood":"New Toronto","address":"2888 Lake Shore Boulevard W","city":"Toronto","state":"ON","postal_code":"M8V 1J2","latitude":43.6012,"longitude":-79.5038,"stars":4.5,"review_count":129,"is_open":1,"iterator":226,"stars_food":4.6,"stars_service":4.5,"stars_ambience":4.3,"stars_value":4.2,"noise":"Moderate","recommend":92},{"id":"UkoseRjoLT4K2bEzvmyhYA","name":"The Wren","neighborhood":"The Danforth","address":"1382 Danforth Avenue","city":"Toronto","state":"ON","postal_code":"M4J 1M9","latitude":43.6824,"longitude":-79.328,"stars":4,"review_count":146,"is_open":1,"iterator":227,"stars_food":4.3,"stars_service":4.2,"stars_ambience":3.9,"stars_value":4.1,"noise":"Quiet","recommend":87},{"id":"VhQXJteVrG3L-wq8HlYFqw","name":"The Ace","neighborhood":"Roncesvalles","address":"231A Roncesvalles Avenue","city":"Toronto","state":"ON","postal_code":"M6R 2L6","latitude":43.6461,"longitude":-79.4488,"stars":4,"review_count":143,"is_open":1,"iterator":228,"stars_food":4.3,"stars_service":4.2,"stars_ambience":3.9,"stars_value":4.1,"noise":"Quiet","recommend":87},{"id":"VvSmE1NnTjnaTPHT0WrCaQ","name":"King's Café","neighborhood":"Kensington Market","address":"192 Augusta Avenue","city":"Toronto","state":"ON","postal_code":"M5T 2L6","latitude":43.6542,"longitude":-79.4021,"stars":4,"review_count":120,"is_open":1,"iterator":229,"stars_food":4.3,"stars_service":4.2,"stars_ambience":3.9,"stars_value":4.1,"noise":"Quiet","recommend":87},{"id":"v_UM-AW9YYTCbWUNa-w1Gg","name":"Epicure City BOM","neighborhood":"Downtown Core","address":"72 Gerrard Street W","city":"Toronto","state":"ON","postal_code":"M5G 1J5","latitude":43.6585,"longitude":-79.3852,"stars":4,"review_count":113,"is_open":1,"iterator":230,"stars_food":4.3,"stars_service":4.2,"stars_ambience":3.9,"stars_value":4.1,"noise":"Quiet","recommend":87},{"id":"W5d8iNog90R-qw43m5dGwg","name":"Café Polonez","neighborhood":"Roncesvalles","address":"195 Roncesvalles Avenue","city":"Toronto","state":"ON","postal_code":"M6R 2L5","latitude":43.6451,"longitude":-79.4484,"stars":4.5,"review_count":201,"is_open":1,"iterator":231,"stars_food":4.6,"stars_service":4.5,"stars_ambience":4.3,"stars_value":4.2,"noise":"Moderate","recommend":92},{"id":"WbS58nfQQZaxWk1BUPBuJQ","name":"The Poke Box","neighborhood":"Downtown Core","address":"36 Toronto Street","city":"Toronto","state":"ON","postal_code":"M5C 2C5","latitude":43.6506,"longitude":-79.3765,"stars":4,"review_count":106,"is_open":1,"iterator":232,"stars_food":4.3,"stars_service":4.2,"stars_ambience":3.9,"stars_value":4.1,"noise":"Quiet","recommend":87},{"id":"WEwf_IKutaFK2t-cdMhEWg","name":"Thai Country Kitchen","neighborhood":"Chinatown","address":"412 Spadina Ave","city":"Toronto","state":"ON","postal_code":"M5T","latitude":43.6562,"longitude":-79.3997,"stars":4,"review_count":102,"is_open":1,"iterator":233,"stars_food":4.3,"stars_service":4.2,"stars_ambience":3.9,"stars_value":4.1,"noise":"Quiet","recommend":87},{"id":"wK1SMAzIpHh-KYbrs7m0nA","name":"California Sandwiches","neighborhood":"Little Italy","address":"244 Claremont Street","city":"Toronto","state":"ON","postal_code":"M6J 2N2","latitude":43.6525,"longitude":-79.4124,"stars":4.5,"review_count":113,"is_open":1,"iterator":234,"stars_food":4.6,"stars_service":4.5,"stars_ambience":4.3,"stars_value":4.2,"noise":"Moderate","recommend":92},{"id":"wNXw53wmePcf_V3rF18LUg","name":"Grazie Ristorante","neighborhood":"Yonge and Eglinton","address":"2373 Yonge Street","city":"Toronto","state":"ON","postal_code":"M4P 2C8","latitude":43.7094,"longitude":-79.3989,"stars":4,"review_count":325,"is_open":1,"iterator":235,"stars_food":4.3,"stars_service":4.2,"stars_ambience":3.9,"stars_value":4.1,"noise":"Quiet","recommend":87},{"id":"wSojc-y-d7MWiGWdy8deCg","name":"Barque Smokehouse","neighborhood":"Roncesvalles","address":"299 Roncesvalles Avenue","city":"Toronto","state":"ON","postal_code":"M6R 2M3","latitude":43.648,"longitude":-79.4497,"stars":4,"review_count":419,"is_open":1,"iterator":236,"stars_food":4.3,"stars_service":4.2,"stars_ambience":3.9,"stars_value":4.1,"noise":"Quiet","recommend":87},{"id":"ww_MXl-qDLeYdYTZZ9KWbA","name":"Pho Linh","neighborhood":"Brockton Village","address":"1156 College Street W","city":"Toronto","state":"ON","postal_code":"M6H 1B6","latitude":43.6524,"longitude":-79.4341,"stars":4,"review_count":162,"is_open":1,"iterator":237,"stars_food":4.3,"stars_service":4.2,"stars_ambience":3.9,"stars_value":4.1,"noise":"Quiet","recommend":87},{"id":"x6fYvse8sBOZf9y8BOZZmA","name":"Mamakas Taverna","neighborhood":"Ossington Strip","address":"80 Ossington Avenue","city":"Toronto","state":"ON","postal_code":"M6J 2Y7","latitude":43.6459,"longitude":-79.4199,"stars":4,"review_count":139,"is_open":1,"iterator":238,"stars_food":4.3,"stars_service":4.2,"stars_ambience":3.9,"stars_value":4.1,"noise":"Quiet","recommend":87},{"id":"XdY36-Qh_DxnCaFpTPfYMg","name":"Tori's Bakeshop","neighborhood":"The Beach","address":"2188 Queen Street E","city":"Toronto","state":"ON","postal_code":"M4E 1E6","latitude":43.6722,"longitude":-79.2904,"stars":4.5,"review_count":109,"is_open":1,"iterator":239,"stars_food":4.6,"stars_service":4.5,"stars_ambience":4.3,"stars_value":4.2,"noise":"Moderate","recommend":92},{"id":"Xhf3nW6UahoVpRMkVUlnJA","name":"Te Aro","neighborhood":"Leslieville","address":"983 Queen Street E","city":"Toronto","state":"ON","postal_code":"M4M 1K2","latitude":43.6613,"longitude":-79.3383,"stars":4,"review_count":149,"is_open":1,"iterator":240,"stars_food":4.3,"stars_service":4.2,"stars_ambience":3.9,"stars_value":4.1,"noise":"Quiet","recommend":87},{"id":"XrcB7Of1KfHlkeXYpHLIrw","name":"Tibet Kitchen","neighborhood":"Parkdale","address":"1544 Queen Street W","city":"Toronto","state":"ON","postal_code":"M6R 1A6","latitude":43.64,"longitude":-79.4396,"stars":4.5,"review_count":166,"is_open":1,"iterator":241,"stars_food":4.6,"stars_service":4.5,"stars_ambience":4.3,"stars_value":4.2,"noise":"Moderate","recommend":92},{"id":"xwmwTpzw9XSwK-UT5Ka3HQ","name":"Bellwoods Brewery","neighborhood":"Ossington Strip","address":"124-126 Ossington Avenue","city":"Toronto","state":"ON","postal_code":"M6J 1R5","latitude":43.6471,"longitude":-79.42,"stars":4,"review_count":273,"is_open":1,"iterator":242,"stars_food":4.3,"stars_service":4.2,"stars_ambience":3.9,"stars_value":4.1,"noise":"Quiet","recommend":87},{"id":"XYIPXJ9parr9FtvvcGI1SA","name":"GB Hand-pulled Noodles","neighborhood":"Downtown Core","address":"66 Edward Street","city":"Toronto","state":"ON","postal_code":"M5G 1C9","latitude":43.6566,"longitude":-79.3838,"stars":4,"review_count":255,"is_open":1,"iterator":243,"stars_food":4.3,"stars_service":4.2,"stars_ambience":3.9,"stars_value":4.1,"noise":"Quiet","recommend":87},{"id":"XZxJ4fG-4a3PP9VP5jvDWw","name":"Mother India","neighborhood":"Parkdale","address":"1456 Queen Street W","city":"Toronto","state":"ON","postal_code":"M6K 1M2","latitude":43.6408,"longitude":-79.4363,"stars":4,"review_count":177,"is_open":1,"iterator":244,"stars_food":4.3,"stars_service":4.2,"stars_ambience":3.9,"stars_value":4.1,"noise":"Quiet","recommend":87},{"id":"y-Iw6dZflNix4BdwIyTNGA","name":"Indie Ale House","neighborhood":"The Junction","address":"2876 Dundas Street W","city":"Toronto","state":"ON","postal_code":"M6P 1Y9","latitude":43.6654,"longitude":-79.4652,"stars":4,"review_count":215,"is_open":1,"iterator":245,"stars_food":4.3,"stars_service":4.2,"stars_ambience":3.9,"stars_value":4.1,"noise":"Quiet","recommend":87},{"id":"Y8vH_HD8JiUXZWHecrvMPA","name":"Rashers","neighborhood":"Leslieville","address":"948 Queen Street E","city":"Toronto","state":"ON","postal_code":"M4M 1J7","latitude":43.6609,"longitude":-79.3411,"stars":4.5,"review_count":108,"is_open":1,"iterator":246,"stars_food":4.6,"stars_service":4.5,"stars_ambience":4.3,"stars_value":4.2,"noise":"Moderate","recommend":92},{"id":"ybbcg01-j7tKJ_oLEY1uPQ","name":"Jatujak","neighborhood":"Scarborough","address":"1466 Kingston Road","city":"Toronto","state":"ON","postal_code":"M1N 1R6","latitude":43.6884,"longitude":-79.27,"stars":4,"review_count":110,"is_open":1,"iterator":247,"stars_food":4.3,"stars_service":4.2,"stars_ambience":3.9,"stars_value":4.1,"noise":"Quiet","recommend":87},{"id":"YHubCF0Ua0uC6HC2tm-arQ","name":"The Federal","neighborhood":"Little Portugal","address":"1438 Dundas Street W","city":"Toronto","state":"ON","postal_code":"M6J 3L5","latitude":43.6496,"longitude":-79.4301,"stars":4,"review_count":128,"is_open":1,"iterator":248,"stars_food":4.3,"stars_service":4.2,"stars_ambience":3.9,"stars_value":4.1,"noise":"Quiet","recommend":87},{"id":"YJ05ntGlszxACOD5zn1YjA","name":"The Burger's Priest","neighborhood":"Queen Street West","address":"463 Queen Street W","city":"Toronto","state":"ON","postal_code":"M5V 2A9","latitude":43.6485,"longitude":-79.3973,"stars":4,"review_count":311,"is_open":1,"iterator":249,"stars_food":4.3,"stars_service":4.2,"stars_ambience":3.9,"stars_value":4.1,"noise":"Quiet","recommend":87},{"id":"Yl2TN9c23ZGLUBSD9ks5Uw","name":"Byblos","neighborhood":"Entertainment District","address":"11 Duncan Street","city":"Toronto","state":"ON","postal_code":"M5V 3M2","latitude":43.6474,"longitude":-79.3882,"stars":4.5,"review_count":556,"is_open":1,"iterator":250,"stars_food":4.6,"stars_service":4.5,"stars_ambience":4.3,"stars_value":4.2,"noise":"Moderate","recommend":92},{"id":"YtfQQHdcQ_bGl2V0Agxw1A","name":"Bindia Indian Bistro","neighborhood":"St. Lawrence","address":"16 Market Street","city":"Toronto","state":"ON","postal_code":"M5E","latitude":43.6487,"longitude":-79.372,"stars":4,"review_count":118,"is_open":1,"iterator":251,"stars_food":4.3,"stars_service":4.2,"stars_ambience":3.9,"stars_value":4.1,"noise":"Quiet","recommend":87},{"id":"yxdmX8dXk5Se9zJ4WAW1pw","name":"Vegetarian Haven","neighborhood":"Downtown Core","address":"17 Baldwin Street","city":"Toronto","state":"ON","postal_code":"M5T 1L1","latitude":43.656,"longitude":-79.3928,"stars":4,"review_count":180,"is_open":1,"iterator":252,"stars_food":4.3,"stars_service":4.2,"stars_ambience":3.9,"stars_value":4.1,"noise":"Quiet","recommend":87},{"id":"yY3jNsrpCyKTqQuRuLV8gw","name":"Cactus Club Cafe","neighborhood":"Financial District","address":"77 Adelaide Street W","city":"Toronto","state":"ON","postal_code":"M5H 1P9","latitude":43.6494,"longitude":-79.3825,"stars":4,"review_count":278,"is_open":1,"iterator":253,"stars_food":4.3,"stars_service":4.2,"stars_ambience":3.9,"stars_value":4.1,"noise":"Quiet","recommend":87},{"id":"zA6gnF5aPBGoOm6uIbKt-A","name":"Yuzu No Hana","neighborhood":"Entertainment District","address":"236 Adelaide Street W","city":"Toronto","state":"ON","postal_code":"M5H 1W7","latitude":43.6483,"longitude":-79.3883,"stars":4,"review_count":442,"is_open":1,"iterator":254,"stars_food":4.3,"stars_service":4.2,"stars_ambience":3.9,"stars_value":4.1,"noise":"Quiet","recommend":87},{"id":"zb61eT_ChYctlCXcIqlW6Q","name":"Me Va Me Kitchen Express","neighborhood":"Queen Street West","address":"240 Queen Street W","city":"Toronto","state":"ON","postal_code":"M5V 1Z7","latitude":43.6502,"longitude":-79.3906,"stars":4,"review_count":139,"is_open":1,"iterator":255,"stars_food":4.3,"stars_service":4.2,"stars_ambience":3.9,"stars_value":4.1,"noise":"Quiet","recommend":87},{"id":"ZdaZwXC0FByDY3EwNELphw","name":"Union","neighborhood":"Ossington Strip","address":"72A Ossington Avenue","city":"Toronto","state":"ON","postal_code":"M6J 2Y7","latitude":43.6458,"longitude":-79.4196,"stars":4,"review_count":187,"is_open":1,"iterator":256,"stars_food":4.3,"stars_service":4.2,"stars_ambience":3.9,"stars_value":4.1,"noise":"Quiet","recommend":87},{"id":"zfQ855VX3SMA_54oVSN5Cw","name":"Fresco's Fish & Chips","neighborhood":"Kensington Market","address":"201 Augusta Avenue","city":"Toronto","state":"ON","postal_code":"M5T 2L4","latitude":43.6538,"longitude":-79.4016,"stars":4.5,"review_count":280,"is_open":1,"iterator":257,"stars_food":4.6,"stars_service":4.5,"stars_ambience":4.3,"stars_value":4.2,"noise":"Moderate","recommend":92},{"id":"zjZbVmI5FGQflHL6rRMxoA","name":"Corned Beef House","neighborhood":"Entertainment District","address":"270 Adelaide St W","city":"Toronto","state":"ON","postal_code":"M5H 1X6","latitude":43.648,"longitude":-79.3901,"stars":4,"review_count":127,"is_open":1,"iterator":258,"stars_food":4.3,"stars_service":4.2,"stars_ambience":3.9,"stars_value":4.1,"noise":"Quiet","recommend":87},{"id":"Zq9WPT7ZAOYlQ0GV8OQWKQ","name":"Cluck Clucks","neighborhood":"St. Lawrence","address":"222 The Esplanade","city":"Toronto","state":"ON","postal_code":"M5A 4M8","latitude":43.6499,"longitude":-79.3662,"stars":4.5,"review_count":185,"is_open":1,"iterator":259,"stars_food":4.6,"stars_service":4.5,"stars_ambience":4.3,"stars_value":4.2,"noise":"Moderate","recommend":92},{"id":"ZxrWn3v1ZVX9SC_ObbfpHQ","name":"Ruby Watchco","neighborhood":"Riverdale","address":"730 Queen Street E","city":"Toronto","state":"ON","postal_code":"M4M 1H2","latitude":43.6592,"longitude":-79.3491,"stars":4,"review_count":216,"is_open":1,"iterator":260,"stars_food":4.3,"stars_service":4.2,"stars_ambience":3.9,"stars_value":4.1,"noise":"Quiet","recommend":87},{"id":"_5izyrn1qV0uyec65UsdIA","name":"LOCAL Public Eatery","neighborhood":"Liberty Village","address":"171 E Liberty Street, Unit 100","city":"Toronto","state":"ON","postal_code":"M6K 3P6","latitude":43.6384,"longitude":-79.4184,"stars":4,"review_count":207,"is_open":1,"iterator":261,"stars_food":4.3,"stars_service":4.2,"stars_ambience":3.9,"stars_value":4.1,"noise":"Quiet","recommend":87},{"id":"_81fRJ9m8Fn1s8ixPun46A","name":"Union Social Eatery","neighborhood":"Willowdale","address":"4899 Yonge Street","city":"Toronto","state":"ON","postal_code":"M2N 5N4","latitude":43.7639,"longitude":-79.4112,"stars":4,"review_count":181,"is_open":1,"iterator":262,"stars_food":4.3,"stars_service":4.2,"stars_ambience":3.9,"stars_value":4.1,"noise":"Quiet","recommend":87},{"id":"_l3nxDFpmLUMxCQrz1LfBQ","name":"Early Bird Coffee & Kitchen","neighborhood":"Queen Street West","address":"613 Queen Street W","city":"Toronto","state":"ON","postal_code":"M5V 2B7","latitude":43.6473,"longitude":-79.4025,"stars":4,"review_count":132,"is_open":1,"iterator":263,"stars_food":4.3,"stars_service":4.2,"stars_ambience":3.9,"stars_value":4.1,"noise":"Quiet","recommend":87},{"id":"_T7f2wUgNlJqxsR-cR89SQ","name":"Scaramouche Restaurant Pasta Bar & Grill","neighborhood":"South Hill","address":"1 Benvenuto Place","city":"Toronto","state":"ON","postal_code":"M4V 2L1","latitude":43.6816,"longitude":-79.4,"stars":4.5,"review_count":210,"is_open":1,"iterator":264,"stars_food":4.6,"stars_service":4.5,"stars_ambience":4.3,"stars_value":4.2,"noise":"Moderate","recommend":92},{"id":"_T8qy9XAKAFLJdmoLg1Q-g","name":"Burrito Boyz","neighborhood":"Willowdale","address":"5314 Yonge Street","city":"Toronto","state":"ON","postal_code":"M2N","latitude":43.773,"longitude":-79.4141,"stars":4,"review_count":113,"is_open":1,"iterator":265,"stars_food":4.3,"stars_service":4.2,"stars_ambience":3.9,"stars_value":4.1,"noise":"Quiet","recommend":87},{"id":"_u1Bq7QsgMUXSMex8QHqLQ","name":"Burrito Boyz","neighborhood":"Entertainment District","address":"224 Adelaide Street W","city":"Toronto","state":"ON","postal_code":"M5H 1W7","latitude":43.6487,"longitude":-79.3881,"stars":4,"review_count":369,"is_open":1,"iterator":266,"stars_food":4.3,"stars_service":4.2,"stars_ambience":3.9,"stars_value":4.1,"noise":"Quiet","recommend":87},{"id":"_xAJZOKBMPOe47p1MphB2w","name":"Fishman Lobster Clubhouse Restaurant","neighborhood":"Milliken","address":"680 Silver Star Boulevard","city":"Toronto","state":"ON","postal_code":"M1V 4S5","latitude":43.8242,"longitude":-79.3008,"stars":4,"review_count":451,"is_open":1,"iterator":267,"stars_food":4.3,"stars_service":4.2,"stars_ambience":3.9,"stars_value":4.1,"noise":"Quiet","recommend":87}]